[{"University":"Talladega College","City":"Talladega","State":"AL","Denomination":"United Church of Christ","AQI Rank":"843","Graduation Rate":"2.5%","Faculty to Student Ratio":"1.3%","Faculty per Degree Awarded":"4.9%","Instructional Expenses":"10.7%","AQI":"0.19412314044507906","AQI Percentile Display":"0.1%","AQI Tier":"Weak","Latitude":33.4325135,"Longitude":-86.114887794},{"University":"Lyon College","City":"Batesville","State":"AR","Denomination":"Presbyterian","AQI Rank":"842","Graduation Rate":"3.1%","Faculty to Student Ratio":"5.2%","Faculty per Degree Awarded":"5.3%","Instructional Expenses":"10.5%","AQI":"0.24090387551839063","AQI Percentile Display":"0.2%","AQI Tier":"Weak","Latitude":35.7764261,"Longitude":-91.6242393952},{"University":"Beulah Heights University","City":"Atlanta","State":"GA","Denomination":"Interdenominational","AQI Rank":"841","Graduation Rate":"0.3%","Faculty to Student Ratio":"14.4%","Faculty per Degree Awarded":"0.0%","Instructional Expenses":"12.1%","AQI":"0.26804126127781636","AQI Percentile Display":"0.4%","AQI Tier":"Weak","Latitude":33.749291,"Longitude":-84.414452},{"University":"University of the West","City":"Rosemead","State":"CA","Denomination":"Other","AQI Rank":"840","Graduation Rate":"1.9%","Faculty to Student Ratio":"7.5%","Faculty per Degree Awarded":"5.8%","Instructional Expenses":"12.0%","AQI":"0.2720352451319422","AQI Percentile Display":"0.5%","AQI Tier":"Weak","Latitude":34.04497585,"Longitude":-118.0830001951},{"University":"Hannibal-LaGrange University","City":"Hannibal","State":"MO","Denomination":"Baptist","AQI Rank":"839","Graduation Rate":"5.8%","Faculty to Student Ratio":"1.8%","Faculty per Degree Awarded":"8.3%","Instructional Expenses":"11.6%","AQI":"0.2746256819595731","AQI Percentile Display":"0.6%","AQI Tier":"Weak","Latitude":39.73271775,"Longitude":-91.3910011456},{"University":"Bennett College","City":"Greensboro","State":"NC","Denomination":"Methodist","AQI Rank":"838","Graduation Rate":"0.3%","Faculty to Student Ratio":"13.6%","Faculty per Degree Awarded":"5.3%","Instructional Expenses":"11.9%","AQI":"0.3108751820108189","AQI Percentile Display":"0.7%","AQI Tier":"Weak","Latitude":36.0675102,"Longitude":-79.7796382234},{"University":"East-West University","City":"Chicago","State":"IL","Denomination":"Interdenominational","AQI Rank":"837","Graduation Rate":"1.3%","Faculty to Student Ratio":"14.3%","Faculty per Degree Awarded":"3.8%","Instructional Expenses":"12.1%","AQI":"0.3147458271897562","AQI Percentile Display":"0.8%","AQI Tier":"Weak","Latitude":41.8712713,"Longitude":-87.6250693599},{"University":"Cleveland University-Kansas City","City":"Overland Park","State":"KS","Denomination":"Nonsectarian","AQI Rank":"836","Graduation Rate":"0.2%","Faculty to Student Ratio":"14.5%","Faculty per Degree Awarded":"4.9%","Instructional Expenses":"12.1%","AQI":"0.31647229366872814","AQI Percentile Display":"1.0%","AQI Tier":"Weak","Latitude":38.9322187,"Longitude":-94.6797433384},{"University":"Midwives College of Utah","City":"Salt Lake City","State":"UT","Denomination":"Nonsectarian","AQI Rank":"835","Graduation Rate":"0.0%","Faculty to Student Ratio":"14.3%","Faculty per Degree Awarded":"5.2%","Instructional Expenses":"12.0%","AQI":"0.3167634867534488","AQI Percentile Display":"1.1%","AQI Tier":"Weak","Latitude":37.676139,"Longitude":-113.058279},{"University":"Hodges University","City":"Fort Myers","State":"FL","Denomination":"Nonsectarian","AQI Rank":"834","Graduation Rate":"0.9%","Faculty to Student Ratio":"13.9%","Faculty per Degree Awarded":"5.0%","Instructional Expenses":"12.0%","AQI":"0.3173826461851023","AQI Percentile Display":"1.2%","AQI Tier":"Weak","Latitude":26.61136205,"Longitude":-81.821740797},{"University":"Allen University","City":"Columbia","State":"SC","Denomination":"Methodist","AQI Rank":"833","Graduation Rate":"0.2%","Faculty to Student Ratio":"14.5%","Faculty per Degree Awarded":"5.2%","Instructional Expenses":"12.1%","AQI":"0.32023627954424655","AQI Percentile Display":"1.3%","AQI Tier":"Weak","Latitude":34.01046295,"Longitude":-81.0199355569},{"University":"Ottawa University-Ottawa","City":"Ottawa","State":"KS","Denomination":"Baptist","AQI Rank":"832","Graduation Rate":"0.7%","Faculty to Student Ratio":"14.3%","Faculty per Degree Awarded":"4.9%","Instructional Expenses":"12.1%","AQI":"0.3203227806373813","AQI Percentile Display":"1.4%","AQI Tier":"Weak","Latitude":38.60293695,"Longitude":-95.2638028645},{"University":"Manchester University","City":"North Manchester","State":"IN","Denomination":"Anabaptist","AQI Rank":"831","Graduation Rate":"0.7%","Faculty to Student Ratio":"14.5%","Faculty per Degree Awarded":"4.9%","Instructional Expenses":"12.1%","AQI":"0.3223541277401666","AQI Percentile Display":"1.5%","AQI Tier":"Weak","Latitude":41.01177555,"Longitude":-85.7600095374},{"University":"Peirce College","City":"Philadelphia","State":"PA","Denomination":"Nonsectarian","AQI Rank":"830","Graduation Rate":"0.0%","Faculty to Student Ratio":"15.4%","Faculty per Degree Awarded":"4.8%","Instructional Expenses":"12.2%","AQI":"0.32381658362953636","AQI Percentile Display":"1.7%","AQI Tier":"Weak","Latitude":39.9454895,"Longitude":-75.1664824705},{"University":"Alice Lloyd College","City":"Pippa Passes","State":"KY","Denomination":"Nonsectarian","AQI Rank":"829","Graduation Rate":"0.8%","Faculty to Student Ratio":"14.5%","Faculty per Degree Awarded":"5.1%","Instructional Expenses":"12.1%","AQI":"0.32445863962532134","AQI Percentile Display":"1.8%","AQI Tier":"Weak","Latitude":37.3362011,"Longitude":-82.8733922868},{"University":"Visible Music College","City":"Memphis","State":"TN","Denomination":"Interdenominational","AQI Rank":"828","Graduation Rate":"0.2%","Faculty to Student Ratio":"14.6%","Faculty per Degree Awarded":"5.5%","Instructional Expenses":"12.1%","AQI":"0.32497317793922786","AQI Percentile Display":"1.9%","AQI Tier":"Weak","Latitude":35.144546,"Longitude":-90.0493029283},{"University":"Kansas Wesleyan University","City":"Salina","State":"KS","Denomination":"Methodist","AQI Rank":"827","Graduation Rate":"1.0%","Faculty to Student Ratio":"14.4%","Faculty per Degree Awarded":"5.1%","Instructional Expenses":"12.1%","AQI":"0.32548352713910317","AQI Percentile Display":"2.0%","AQI Tier":"Weak","Latitude":38.8135329,"Longitude":-97.6100543748},{"University":"Central Yeshiva Tomchei Tmimim Lubavitz","City":"Brooklyn","State":"NY","Denomination":"Jewish","AQI Rank":"826","Graduation Rate":"1.3%","Faculty to Student Ratio":"14.3%","Faculty per Degree Awarded":"5.0%","Instructional Expenses":"12.0%","AQI":"0.3270402370637984","AQI Percentile Display":"2.1%","AQI Tier":"Weak","Latitude":40.692532,"Longitude":-73.990997},{"University":"Texas College","City":"Tyler","State":"TX","Denomination":"Methodist","AQI Rank":"825","Graduation Rate":"2.2%","Faculty to Student Ratio":"13.9%","Faculty per Degree Awarded":"4.6%","Instructional Expenses":"12.1%","AQI":"0.3271271237629384","AQI Percentile Display":"2.2%","AQI Tier":"Weak","Latitude":32.3746078,"Longitude":-95.3124532495},{"University":"Charles R Drew University of Medicine and Science","City":"Los Angeles","State":"CA","Denomination":"Nonsectarian","AQI Rank":"824","Graduation Rate":"0.0%","Faculty to Student Ratio":"15.3%","Faculty per Degree Awarded":"5.2%","Instructional Expenses":"12.2%","AQI":"0.3271650000294944","AQI Percentile Display":"2.4%","AQI Tier":"Weak","Latitude":33.92682765,"Longitude":-118.2423498963},{"University":"Metropolitan College of New York","City":"New York","State":"NY","Denomination":"Nonsectarian","AQI Rank":"823","Graduation Rate":"6.3%","Faculty to Student Ratio":"12.0%","Faculty per Degree Awarded":"2.6%","Instructional Expenses":"11.9%","AQI":"0.32750383663380117","AQI Percentile Display":"2.5%","AQI Tier":"Weak","Latitude":40.8152756,"Longitude":-73.9153259},{"University":"Shaw University","City":"Raleigh","State":"NC","Denomination":"Baptist","AQI Rank":"822","Graduation Rate":"1.2%","Faculty to Student Ratio":"14.6%","Faculty per Degree Awarded":"5.0%","Instructional Expenses":"12.1%","AQI":"0.3283433054122092","AQI Percentile Display":"2.6%","AQI Tier":"Weak","Latitude":35.77076885,"Longitude":-78.6369792327},{"University":"Trinity College of Florida","City":"Trinity","State":"FL","Denomination":"Interdenominational","AQI Rank":"821","Graduation Rate":"0.9%","Faculty to Student Ratio":"14.8%","Faculty per Degree Awarded":"5.1%","Instructional Expenses":"12.1%","AQI":"0.3284388094224687","AQI Percentile Display":"2.7%","AQI Tier":"Weak","Latitude":28.19391805,"Longitude":-82.6783596074},{"University":"Central Christian College of the Bible","City":"Moberly","State":"MO","Denomination":"Protestant","AQI Rank":"820","Graduation Rate":"0.8%","Faculty to Student Ratio":"14.8%","Faculty per Degree Awarded":"5.1%","Instructional Expenses":"12.2%","AQI":"0.3289264544352555","AQI Percentile Display":"2.8%","AQI Tier":"Weak","Latitude":39.3960492,"Longitude":-92.4271758356},{"University":"Benedict College","City":"Columbia","State":"SC","Denomination":"Baptist","AQI Rank":"819","Graduation Rate":"1.5%","Faculty to Student Ratio":"14.4%","Faculty per Degree Awarded":"4.9%","Instructional Expenses":"12.1%","AQI":"0.3292010423707253","AQI Percentile Display":"3.0%","AQI Tier":"Weak","Latitude":34.01396275,"Longitude":-81.0209728892},{"University":"Brewton-Parker College","City":"Mount Vernon","State":"GA","Denomination":"Baptist","AQI Rank":"818","Graduation Rate":"1.3%","Faculty to Student Ratio":"14.5%","Faculty per Degree Awarded":"5.1%","Instructional Expenses":"12.1%","AQI":"0.32940387996096465","AQI Percentile Display":"3.1%","AQI Tier":"Weak","Latitude":32.185388958,"Longitude":-82.5834727116},{"University":"University of the Southwest","City":"Hobbs","State":"NM","Denomination":"Protestant","AQI Rank":"817","Graduation Rate":"2.0%","Faculty to Student Ratio":"14.4%","Faculty per Degree Awarded":"4.8%","Instructional Expenses":"12.1%","AQI":"0.33259127385820103","AQI Percentile Display":"3.2%","AQI Tier":"Weak","Latitude":32.77421735,"Longitude":-103.1892648731},{"University":"Wilmington University","City":"New Castle","State":"DE","Denomination":"Nonsectarian","AQI Rank":"816","Graduation Rate":"1.9%","Faculty to Student Ratio":"14.5%","Faculty per Degree Awarded":"4.9%","Instructional Expenses":"12.1%","AQI":"0.33263086064593117","AQI Percentile Display":"3.3%","AQI Tier":"Weak","Latitude":39.68213315,"Longitude":-75.5869978131},{"University":"Trocaire College","City":"Buffalo","State":"NY","Denomination":"Catholic","AQI Rank":"815","Graduation Rate":"1.8%","Faculty to Student Ratio":"14.6%","Faculty per Degree Awarded":"4.8%","Instructional Expenses":"12.2%","AQI":"0.3331487738507612","AQI Percentile Display":"3.4%","AQI Tier":"Weak","Latitude":42.8467327,"Longitude":-78.8127639},{"University":"Bluefield University","City":"Bluefield","State":"VA","Denomination":"Baptist","AQI Rank":"814","Graduation Rate":"1.9%","Faculty to Student Ratio":"14.5%","Faculty per Degree Awarded":"4.8%","Instructional Expenses":"12.1%","AQI":"0.33320208559864906","AQI Percentile Display":"3.6%","AQI Tier":"Weak","Latitude":37.24510425,"Longitude":-81.2480023995},{"University":"Trinity Baptist College","City":"Jacksonville","State":"FL","Denomination":"Baptist","AQI Rank":"813","Graduation Rate":"1.5%","Faculty to Student Ratio":"14.8%","Faculty per Degree Awarded":"5.1%","Instructional Expenses":"12.1%","AQI":"0.33322539925063765","AQI Percentile Display":"3.7%","AQI Tier":"Weak","Latitude":30.342791,"Longitude":-81.692947},{"University":"Anna Maria College","City":"Paxton","State":"MA","Denomination":"Catholic","AQI Rank":"812","Graduation Rate":"1.9%","Faculty to Student Ratio":"14.5%","Faculty per Degree Awarded":"4.9%","Instructional Expenses":"12.1%","AQI":"0.33336185928008416","AQI Percentile Display":"3.8%","AQI Tier":"Weak","Latitude":42.33036785,"Longitude":-71.9197277944},{"University":"National Louis University","City":"Chicago","State":"IL","Denomination":"Nonsectarian","AQI Rank":"811","Graduation Rate":"2.0%","Faculty to Student Ratio":"14.4%","Faculty per Degree Awarded":"4.9%","Instructional Expenses":"12.1%","AQI":"0.33466768520263585","AQI Percentile Display":"3.9%","AQI Tier":"Weak","Latitude":41.87990865,"Longitude":-87.6249023738},{"University":"Williamson Christian College","City":"Franklin","State":"TN","Denomination":"Interdenominational","AQI Rank":"810","Graduation Rate":"0.0%","Faculty to Student Ratio":"15.2%","Faculty per Degree Awarded":"6.2%","Instructional Expenses":"12.1%","AQI":"0.33546012697769934","AQI Percentile Display":"4.0%","AQI Tier":"Weak","Latitude":35.747867,"Longitude":-86.836774},{"University":"University of Saint Mary","City":"Leavenworth","State":"KS","Denomination":"Catholic","AQI Rank":"809","Graduation Rate":"1.6%","Faculty to Student Ratio":"14.6%","Faculty per Degree Awarded":"5.4%","Instructional Expenses":"12.1%","AQI":"0.3363271049748725","AQI Percentile Display":"4.2%","AQI Tier":"Weak","Latitude":39.2778813,"Longitude":-94.90448802},{"University":"Rust College","City":"Holly Springs","State":"MS","Denomination":"Methodist","AQI Rank":"808","Graduation Rate":"1.6%","Faculty to Student Ratio":"14.7%","Faculty per Degree Awarded":"5.3%","Instructional Expenses":"12.1%","AQI":"0.3368032835519283","AQI Percentile Display":"4.3%","AQI Tier":"Weak","Latitude":34.7762325,"Longitude":-89.4473184657},{"University":"Limestone University","City":"Gaffney","State":"SC","Denomination":"Interdenominational","AQI Rank":"807","Graduation Rate":"1.7%","Faculty to Student Ratio":"14.8%","Faculty per Degree Awarded":"5.1%","Instructional Expenses":"12.1%","AQI":"0.3374595042093751","AQI Percentile Display":"4.4%","AQI Tier":"Weak","Latitude":35.05532985,"Longitude":-81.6483922637},{"University":"Yeshiva Derech Chaim","City":"Brooklyn","State":"NY","Denomination":"Jewish","AQI Rank":"806","Graduation Rate":"0.0%","Faculty to Student Ratio":"14.6%","Faculty per Degree Awarded":"7.0%","Instructional Expenses":"12.1%","AQI":"0.33757187279505374","AQI Percentile Display":"4.5%","AQI Tier":"Weak","Latitude":40.692532,"Longitude":-73.990997},{"University":"Northwestern Health Sciences University","City":"Bloomington","State":"MN","Denomination":"Nonsectarian","AQI Rank":"805","Graduation Rate":"2.1%","Faculty to Student Ratio":"14.6%","Faculty per Degree Awarded":"5.0%","Instructional Expenses":"12.1%","AQI":"0.33810623782337024","AQI Percentile Display":"4.6%","AQI Tier":"Weak","Latitude":44.8504407,"Longitude":-93.3118390734},{"University":"Ripon College","City":"Ripon","State":"WI","Denomination":"Nonsectarian","AQI Rank":"804","Graduation Rate":"2.1%","Faculty to Student Ratio":"14.5%","Faculty per Degree Awarded":"5.1%","Instructional Expenses":"12.1%","AQI":"0.3381359780646395","AQI Percentile Display":"4.7%","AQI Tier":"Weak","Latitude":43.84102355,"Longitude":-88.8539386121},{"University":"Lane College","City":"Jackson","State":"TN","Denomination":"Methodist","AQI Rank":"803","Graduation Rate":"1.9%","Faculty to Student Ratio":"14.5%","Faculty per Degree Awarded":"5.4%","Instructional Expenses":"12.1%","AQI":"0.33882434293438474","AQI Percentile Display":"4.9%","AQI Tier":"Weak","Latitude":35.6282633,"Longitude":-88.8066916668},{"University":"Yeshiva Toras Chaim","City":"Lakewood","State":"NJ","Denomination":"Jewish","AQI Rank":"802","Graduation Rate":"2.2%","Faculty to Student Ratio":"14.4%","Faculty per Degree Awarded":"5.2%","Instructional Expenses":"12.1%","AQI":"0.33903090743019393","AQI Percentile Display":"5.0%","AQI Tier":"Weak","Latitude":40.089909,"Longitude":-74.21627},{"University":"Missouri Valley College","City":"Marshall","State":"MO","Denomination":"Presbyterian","AQI Rank":"801","Graduation Rate":"2.3%","Faculty to Student Ratio":"14.5%","Faculty per Degree Awarded":"5.1%","Instructional Expenses":"12.1%","AQI":"0.33964541807961895","AQI Percentile Display":"5.1%","AQI Tier":"Weak","Latitude":39.10644115,"Longitude":-93.1907708074},{"University":"Sterling College","City":"Craftsbury Common","State":"VT","Denomination":"Protestant","AQI Rank":"800","Graduation Rate":"0.7%","Faculty to Student Ratio":"15.8%","Faculty per Degree Awarded":"5.3%","Instructional Expenses":"12.3%","AQI":"0.33983687247144156","AQI Percentile Display":"5.2%","AQI Tier":"Weak","Latitude":44.65177415,"Longitude":-72.3823322162},{"University":"Bluffton University","City":"Bluffton","State":"OH","Denomination":"Anabaptist","AQI Rank":"799","Graduation Rate":"2.2%","Faculty to Student Ratio":"14.5%","Faculty per Degree Awarded":"5.2%","Instructional Expenses":"12.1%","AQI":"0.33984474000178744","AQI Percentile Display":"5.3%","AQI Tier":"Weak","Latitude":40.8965715,"Longitude":-83.8996480355},{"University":"Stillman College","City":"Tuscaloosa","State":"AL","Denomination":"Presbyterian","AQI Rank":"798","Graduation Rate":"1.7%","Faculty to Student Ratio":"14.7%","Faculty per Degree Awarded":"5.7%","Instructional Expenses":"12.1%","AQI":"0.3414319955428214","AQI Percentile Display":"5.5%","AQI Tier":"Weak","Latitude":33.19784735,"Longitude":-87.5857278562},{"University":"Baker University","City":"Baldwin City","State":"KS","Denomination":"Methodist","AQI Rank":"797","Graduation Rate":"2.1%","Faculty to Student Ratio":"14.9%","Faculty per Degree Awarded":"5.1%","Instructional Expenses":"12.1%","AQI":"0.3428829651439851","AQI Percentile Display":"5.6%","AQI Tier":"Weak","Latitude":38.77624315,"Longitude":-95.1793950073},{"University":"Calumet College of Saint Joseph","City":"Whiting","State":"IN","Denomination":"Catholic","AQI Rank":"796","Graduation Rate":"2.8%","Faculty to Student Ratio":"14.6%","Faculty per Degree Awarded":"4.9%","Instructional Expenses":"12.1%","AQI":"0.34289394991194855","AQI Percentile Display":"5.7%","AQI Tier":"Weak","Latitude":41.6711327,"Longitude":-87.494267304},{"University":"Sterling College","City":"Sterling","State":"KS","Denomination":"Nonsectarian","AQI Rank":"795","Graduation Rate":"2.0%","Faculty to Student Ratio":"14.8%","Faculty per Degree Awarded":"5.5%","Instructional Expenses":"12.1%","AQI":"0.34315077238452885","AQI Percentile Display":"5.8%","AQI Tier":"Weak","Latitude":38.2199775,"Longitude":-98.2091224544},{"University":"Rabbinical College Telshe","City":"Wickliffe","State":"OH","Denomination":"Jewish","AQI Rank":"794","Graduation Rate":"3.2%","Faculty to Student Ratio":"14.2%","Faculty per Degree Awarded":"4.8%","Instructional Expenses":"12.1%","AQI":"0.34317134911490205","AQI Percentile Display":"5.9%","AQI Tier":"Weak","Latitude":41.605007,"Longitude":-81.475558},{"University":"St. Andrews University","City":"Laurinburg","State":"NC","Denomination":"Presbyterian","AQI Rank":"793","Graduation Rate":"2.5%","Faculty to Student Ratio":"14.5%","Faculty per Degree Awarded":"5.3%","Instructional Expenses":"12.1%","AQI":"0.34463647963469196","AQI Percentile Display":"6.0%","AQI Tier":"Weak","Latitude":34.7407164,"Longitude":-79.4814373},{"University":"Clinton College","City":"Rock Hill","State":"SC","Denomination":"Methodist","AQI Rank":"792","Graduation Rate":"0.0%","Faculty to Student Ratio":"14.8%","Faculty per Degree Awarded":"7.5%","Instructional Expenses":"12.1%","AQI":"0.34465818129592507","AQI Percentile Display":"6.2%","AQI Tier":"Weak","Latitude":34.9134907,"Longitude":-81.0431600315},{"University":"Shorter University","City":"Rome","State":"GA","Denomination":"Baptist","AQI Rank":"791","Graduation Rate":"2.9%","Faculty to Student Ratio":"14.5%","Faculty per Degree Awarded":"5.0%","Instructional Expenses":"12.1%","AQI":"0.34472441950505883","AQI Percentile Display":"6.3%","AQI Tier":"Weak","Latitude":34.25942875,"Longitude":-85.195275107},{"University":"Bethany College","City":"Lindsborg","State":"KS","Denomination":"Lutheran","AQI Rank":"790","Graduation Rate":"2.7%","Faculty to Student Ratio":"14.6%","Faculty per Degree Awarded":"5.2%","Instructional Expenses":"12.1%","AQI":"0.34511936517333597","AQI Percentile Display":"6.4%","AQI Tier":"Weak","Latitude":38.5810524,"Longitude":-97.6720972858},{"University":"Pfeiffer University","City":"Misenheimer","State":"NC","Denomination":"Methodist","AQI Rank":"789","Graduation Rate":"3.0%","Faculty to Student Ratio":"14.5%","Faculty per Degree Awarded":"4.9%","Instructional Expenses":"12.2%","AQI":"0.34635353491240284","AQI Percentile Display":"6.5%","AQI Tier":"Weak","Latitude":35.4864543,"Longitude":-80.282150318},{"University":"William Penn University","City":"Oskaloosa","State":"IA","Denomination":"Friends","AQI Rank":"788","Graduation Rate":"3.3%","Faculty to Student Ratio":"14.4%","Faculty per Degree Awarded":"5.1%","Instructional Expenses":"12.1%","AQI":"0.34823561972794154","AQI Percentile Display":"6.6%","AQI Tier":"Weak","Latitude":41.3117756,"Longitude":-92.6489404592},{"University":"Benjamin Franklin Cummings Institute of Technology","City":"Boston","State":"MA","Denomination":"Nonsectarian","AQI Rank":"787","Graduation Rate":"7.6%","Faculty to Student Ratio":"15.0%","Faculty per Degree Awarded":"0.0%","Instructional Expenses":"12.2%","AQI":"0.3487274752413357","AQI Percentile Display":"6.8%","AQI Tier":"Weak","Latitude":42.346054,"Longitude":-71.070114},{"University":"Howard Payne University","City":"Brownwood","State":"TX","Denomination":"Baptist","AQI Rank":"786","Graduation Rate":"2.4%","Faculty to Student Ratio":"14.7%","Faculty per Degree Awarded":"5.8%","Instructional Expenses":"12.1%","AQI":"0.34944216061440303","AQI Percentile Display":"6.9%","AQI Tier":"Weak","Latitude":31.71642025,"Longitude":-98.9863140458},{"University":"Faulkner University","City":"Montgomery","State":"AL","Denomination":"Churches of Christ","AQI Rank":"785","Graduation Rate":"3.4%","Faculty to Student Ratio":"14.5%","Faculty per Degree Awarded":"5.0%","Instructional Expenses":"12.1%","AQI":"0.3496935885983284","AQI Percentile Display":"7.0%","AQI Tier":"Weak","Latitude":32.3854781,"Longitude":-86.217106099},{"University":"Lindsey Wilson College","City":"Columbia","State":"KY","Denomination":"Methodist","AQI Rank":"784","Graduation Rate":"3.7%","Faculty to Student Ratio":"14.4%","Faculty per Degree Awarded":"4.8%","Instructional Expenses":"12.1%","AQI":"0.34986916387086003","AQI Percentile Display":"7.1%","AQI Tier":"Weak","Latitude":37.1020748,"Longitude":-85.2996860978},{"University":"Park University","City":"Parkville","State":"MO","Denomination":"Nonsectarian","AQI Rank":"783","Graduation Rate":"1.7%","Faculty to Student Ratio":"15.0%","Faculty per Degree Awarded":"6.2%","Instructional Expenses":"12.1%","AQI":"0.3503745745621498","AQI Percentile Display":"7.2%","AQI Tier":"Weak","Latitude":39.18900875,"Longitude":-94.6725289415},{"University":"Andrew College","City":"Cuthbert","State":"GA","Denomination":"Methodist","AQI Rank":"782","Graduation Rate":"3.2%","Faculty to Student Ratio":"14.8%","Faculty per Degree Awarded":"5.1%","Instructional Expenses":"12.1%","AQI":"0.3520035817092694","AQI Percentile Display":"7.4%","AQI Tier":"Weak","Latitude":31.77219555,"Longitude":-84.7957087072},{"University":"Texas Wesleyan University","City":"Fort Worth","State":"TX","Denomination":"Methodist","AQI Rank":"781","Graduation Rate":"3.6%","Faculty to Student Ratio":"14.5%","Faculty per Degree Awarded":"5.1%","Instructional Expenses":"12.1%","AQI":"0.3528327774383882","AQI Percentile Display":"7.5%","AQI Tier":"Weak","Latitude":32.73306755,"Longitude":-97.2801339922},{"University":"University of Holy Cross","City":"New Orleans","State":"LA","Denomination":"Catholic","AQI Rank":"780","Graduation Rate":"2.9%","Faculty to Student Ratio":"14.9%","Faculty per Degree Awarded":"5.4%","Instructional Expenses":"12.1%","AQI":"0.35303241912285577","AQI Percentile Display":"7.6%","AQI Tier":"Weak","Latitude":29.91198085,"Longitude":-89.9962939517},{"University":"North American University","City":"Stafford","State":"TX","Denomination":"Nonsectarian","AQI Rank":"779","Graduation Rate":"4.1%","Faculty to Student Ratio":"14.3%","Faculty per Degree Awarded":"4.8%","Instructional Expenses":"12.1%","AQI":"0.353160100397871","AQI Percentile Display":"7.7%","AQI Tier":"Weak","Latitude":33.619552,"Longitude":-101.87037},{"University":"Villa Maria College","City":"Buffalo","State":"NY","Denomination":"Catholic","AQI Rank":"778","Graduation Rate":"3.3%","Faculty to Student Ratio":"14.6%","Faculty per Degree Awarded":"5.4%","Instructional Expenses":"12.1%","AQI":"0.3535817079407652","AQI Percentile Display":"7.8%","AQI Tier":"Weak","Latitude":42.813282,"Longitude":-78.727492},{"University":"Messenger College","City":"Bedford","State":"TX","Denomination":"Protestant","AQI Rank":"777","Graduation Rate":"4.9%","Faculty to Student Ratio":"13.6%","Faculty per Degree Awarded":"4.8%","Instructional Expenses":"12.0%","AQI":"0.3536564636557333","AQI Percentile Display":"8.0%","AQI Tier":"Weak","Latitude":32.844252,"Longitude":-97.143237},{"University":"Louisiana Christian University","City":"Pineville","State":"LA","Denomination":"Baptist","AQI Rank":"776","Graduation Rate":"3.9%","Faculty to Student Ratio":"14.5%","Faculty per Degree Awarded":"5.0%","Instructional Expenses":"12.1%","AQI":"0.35505748905436896","AQI Percentile Display":"8.1%","AQI Tier":"Weak","Latitude":31.3235321,"Longitude":-92.4258488257},{"University":"Livingstone College","City":"Salisbury","State":"NC","Denomination":"Methodist","AQI Rank":"775","Graduation Rate":"3.1%","Faculty to Student Ratio":"14.8%","Faculty per Degree Awarded":"5.6%","Instructional Expenses":"12.1%","AQI":"0.3563307101177398","AQI Percentile Display":"8.2%","AQI Tier":"Weak","Latitude":35.67128695,"Longitude":-80.4856795126},{"University":"York University","City":"York","State":"NE","Denomination":"Churches of Christ","AQI Rank":"774","Graduation Rate":"4.5%","Faculty to Student Ratio":"14.3%","Faculty per Degree Awarded":"4.7%","Instructional Expenses":"12.1%","AQI":"0.3564806143542127","AQI Percentile Display":"8.3%","AQI Tier":"Weak","Latitude":40.86967775,"Longitude":-97.5803407887},{"University":"Randall University","City":"Moore","State":"OK","Denomination":"Baptist","AQI Rank":"773","Graduation Rate":"1.9%","Faculty to Student Ratio":"16.3%","Faculty per Degree Awarded":"5.4%","Instructional Expenses":"12.1%","AQI":"0.3567280480275805","AQI Percentile Display":"8.4%","AQI Tier":"Weak","Latitude":35.338274,"Longitude":-97.488365},{"University":"Spartanburg Methodist College","City":"Spartanburg","State":"SC","Denomination":"Methodist","AQI Rank":"772","Graduation Rate":"4.2%","Faculty to Student Ratio":"14.4%","Faculty per Degree Awarded":"5.0%","Instructional Expenses":"12.1%","AQI":"0.3568306102426091","AQI Percentile Display":"8.5%","AQI Tier":"Weak","Latitude":34.95293105,"Longitude":-81.9691684943},{"University":"Miles College","City":"Fairfield","State":"AL","Denomination":"Methodist","AQI Rank":"771","Graduation Rate":"3.4%","Faculty to Student Ratio":"14.5%","Faculty per Degree Awarded":"5.7%","Instructional Expenses":"12.1%","AQI":"0.35693733854015586","AQI Percentile Display":"8.7%","AQI Tier":"Weak","Latitude":33.48109865,"Longitude":-86.9091101544},{"University":"Crowley's Ridge College","City":"Paragould","State":"AR","Denomination":"Churches of Christ","AQI Rank":"770","Graduation Rate":"3.7%","Faculty to Student Ratio":"14.6%","Faculty per Degree Awarded":"5.5%","Instructional Expenses":"12.1%","AQI":"0.35770903065296944","AQI Percentile Display":"8.8%","AQI Tier":"Weak","Latitude":36.052662,"Longitude":-90.505211},{"University":"Blackfeet Community College","City":"Browning","State":"MT","Denomination":"Nonsectarian","AQI Rank":"769","Graduation Rate":"3.0%","Faculty to Student Ratio":"15.3%","Faculty per Degree Awarded":"5.5%","Instructional Expenses":"12.1%","AQI":"0.3580880299929625","AQI Percentile Display":"8.9%","AQI Tier":"Weak","Latitude":48.5523,"Longitude":-113.008786746},{"University":"Morris College","City":"Sumter","State":"SC","Denomination":"Baptist","AQI Rank":"768","Graduation Rate":"3.2%","Faculty to Student Ratio":"14.7%","Faculty per Degree Awarded":"5.9%","Instructional Expenses":"12.1%","AQI":"0.358490007942142","AQI Percentile Display":"9.0%","AQI Tier":"Weak","Latitude":33.9383314,"Longitude":-80.3470005188},{"University":"Fisher College","City":"Boston","State":"MA","Denomination":"Nonsectarian","AQI Rank":"767","Graduation Rate":"4.3%","Faculty to Student Ratio":"14.5%","Faculty per Degree Awarded":"5.1%","Instructional Expenses":"12.1%","AQI":"0.3590199975683169","AQI Percentile Display":"9.1%","AQI Tier":"Weak","Latitude":42.3553679,"Longitude":-71.0737378061},{"University":"American International College","City":"Springfield","State":"MA","Denomination":"Nonsectarian","AQI Rank":"766","Graduation Rate":"3.5%","Faculty to Student Ratio":"17.4%","Faculty per Degree Awarded":"2.9%","Instructional Expenses":"12.1%","AQI":"0.3597051846623556","AQI Percentile Display":"9.2%","AQI Tier":"Weak","Latitude":42.11339535,"Longitude":-72.5572856442},{"University":"Arkansas Baptist College","City":"Little Rock","State":"AR","Denomination":"Baptist","AQI Rank":"765","Graduation Rate":"0.5%","Faculty to Student Ratio":"14.6%","Faculty per Degree Awarded":"8.9%","Instructional Expenses":"12.0%","AQI":"0.35999612879962145","AQI Percentile Display":"9.4%","AQI Tier":"Weak","Latitude":34.7349723,"Longitude":-92.2898356068},{"University":"Ohio Christian University","City":"Circleville","State":"OH","Denomination":"Protestant","AQI Rank":"764","Graduation Rate":"5.2%","Faculty to Student Ratio":"14.1%","Faculty per Degree Awarded":"4.6%","Instructional Expenses":"12.0%","AQI":"0.36003597647398583","AQI Percentile Display":"9.5%","AQI Tier":"Weak","Latitude":39.6118927,"Longitude":-82.9062567268},{"University":"Naropa University","City":"Boulder","State":"CO","Denomination":"Nonsectarian","AQI Rank":"763","Graduation Rate":"3.5%","Faculty to Student Ratio":"14.9%","Faculty per Degree Awarded":"5.5%","Instructional Expenses":"12.1%","AQI":"0.3607409149598497","AQI Percentile Display":"9.6%","AQI Tier":"Weak","Latitude":40.01407945,"Longitude":-105.2669594376},{"University":"MCPHS University","City":"Boston","State":"MA","Denomination":"Nonsectarian","AQI Rank":"762","Graduation Rate":"4.1%","Faculty to Student Ratio":"14.8%","Faculty per Degree Awarded":"5.0%","Instructional Expenses":"12.2%","AQI":"0.36080745295419925","AQI Percentile Display":"9.7%","AQI Tier":"Weak","Latitude":42.352213,"Longitude":-71.110719},{"University":"Florida Memorial University","City":"Miami Gardens","State":"FL","Denomination":"Baptist","AQI Rank":"761","Graduation Rate":"4.8%","Faculty to Student Ratio":"14.3%","Faculty per Degree Awarded":"5.0%","Instructional Expenses":"12.1%","AQI":"0.3614116218358457","AQI Percentile Display":"9.8%","AQI Tier":"Weak","Latitude":25.9175201,"Longitude":-80.2706854411},{"University":"Ferrum College","City":"Ferrum","State":"VA","Denomination":"Methodist","AQI Rank":"760","Graduation Rate":"4.0%","Faculty to Student Ratio":"14.8%","Faculty per Degree Awarded":"5.3%","Instructional Expenses":"12.1%","AQI":"0.3614605928546726","AQI Percentile Display":"10.0%","AQI Tier":"Weak","Latitude":36.93142245,"Longitude":-80.0281305891},{"University":"Southern New Hampshire University","City":"Manchester","State":"NH","Denomination":"Nonsectarian","AQI Rank":"759","Graduation Rate":"5.2%","Faculty to Student Ratio":"14.3%","Faculty per Degree Awarded":"4.7%","Instructional Expenses":"12.0%","AQI":"0.3625759902258046","AQI Percentile Display":"10.1%","AQI Tier":"Weak","Latitude":43.0374605,"Longitude":-71.4478392192},{"University":"Pacific Union College","City":"Angwin","State":"CA","Denomination":"Seventh Day Adventist","AQI Rank":"758","Graduation Rate":"4.8%","Faculty to Student Ratio":"14.4%","Faculty per Degree Awarded":"4.9%","Instructional Expenses":"12.1%","AQI":"0.36279482208506286","AQI Percentile Display":"10.2%","AQI Tier":"Weak","Latitude":38.5702492,"Longitude":-122.4404486},{"University":"Emmanuel University","City":"Franklin Springs","State":"GA","Denomination":"Pentecostal","AQI Rank":"757","Graduation Rate":"4.6%","Faculty to Student Ratio":"14.5%","Faculty per Degree Awarded":"5.2%","Instructional Expenses":"12.1%","AQI":"0.36388826759954473","AQI Percentile Display":"10.3%","AQI Tier":"Weak","Latitude":34.284962,"Longitude":-83.144572},{"University":"Mid-America Christian University","City":"Oklahoma City","State":"OK","Denomination":"Church of God","AQI Rank":"756","Graduation Rate":"5.2%","Faculty to Student Ratio":"14.3%","Faculty per Degree Awarded":"4.9%","Instructional Expenses":"12.1%","AQI":"0.36390514296393545","AQI Percentile Display":"10.4%","AQI Tier":"Weak","Latitude":35.3467159,"Longitude":-97.5784764603},{"University":"Jarvis Christian University","City":"Hawkins","State":"TX","Denomination":"Protestant","AQI Rank":"755","Graduation Rate":"3.9%","Faculty to Student Ratio":"15.0%","Faculty per Degree Awarded":"5.4%","Instructional Expenses":"12.1%","AQI":"0.36399441168034297","AQI Percentile Display":"10.6%","AQI Tier":"Weak","Latitude":32.588298,"Longitude":-95.205319},{"University":"Elmira College","City":"Elmira","State":"NY","Denomination":"Nonsectarian","AQI Rank":"754","Graduation Rate":"4.1%","Faculty to Student Ratio":"14.9%","Faculty per Degree Awarded":"5.4%","Instructional Expenses":"12.1%","AQI":"0.3640402633288318","AQI Percentile Display":"10.7%","AQI Tier":"Weak","Latitude":42.0944203,"Longitude":-76.8155382454},{"University":"Blackburn College","City":"Carlinville","State":"IL","Denomination":"Presbyterian","AQI Rank":"753","Graduation Rate":"3.5%","Faculty to Student Ratio":"15.2%","Faculty per Degree Awarded":"5.7%","Instructional Expenses":"12.2%","AQI":"0.3648693163453557","AQI Percentile Display":"10.8%","AQI Tier":"Weak","Latitude":39.28959765,"Longitude":-89.8715771214},{"University":"Good Samaritan College of Nursing and Health Science","City":"Cincinnati","State":"OH","Denomination":"Catholic","AQI Rank":"752","Graduation Rate":"4.4%","Faculty to Student Ratio":"14.9%","Faculty per Degree Awarded":"5.2%","Instructional Expenses":"12.0%","AQI":"0.36549558817973915","AQI Percentile Display":"10.9%","AQI Tier":"Weak","Latitude":39.203769,"Longitude":-84.672154},{"University":"Le Moyne-Owen College","City":"Memphis","State":"TN","Denomination":"Interdenominational","AQI Rank":"751","Graduation Rate":"2.9%","Faculty to Student Ratio":"16.1%","Faculty per Degree Awarded":"5.5%","Instructional Expenses":"12.1%","AQI":"0.36554189466636583","AQI Percentile Display":"11.0%","AQI Tier":"Weak","Latitude":35.113294,"Longitude":-90.0304},{"University":"Albertus Magnus College","City":"New Haven","State":"CT","Denomination":"Catholic","AQI Rank":"750","Graduation Rate":"5.2%","Faculty to Student Ratio":"14.4%","Faculty per Degree Awarded":"4.9%","Instructional Expenses":"12.1%","AQI":"0.36571433644934537","AQI Percentile Display":"11.2%","AQI Tier":"Weak","Latitude":41.332772,"Longitude":-72.9225456414},{"University":"Webber International University","City":"Babson Park","State":"FL","Denomination":"Nonsectarian","AQI Rank":"749","Graduation Rate":"5.0%","Faculty to Student Ratio":"14.4%","Faculty per Degree Awarded":"5.2%","Instructional Expenses":"12.1%","AQI":"0.36672048671160223","AQI Percentile Display":"11.3%","AQI Tier":"Weak","Latitude":27.828569,"Longitude":-81.525525},{"University":"Edward Waters University","City":"Jacksonville","State":"FL","Denomination":"Methodist","AQI Rank":"748","Graduation Rate":"4.5%","Faculty to Student Ratio":"14.9%","Faculty per Degree Awarded":"5.2%","Instructional Expenses":"12.1%","AQI":"0.3667328429207777","AQI Percentile Display":"11.4%","AQI Tier":"Weak","Latitude":30.34419595,"Longitude":-81.6835694196},{"University":"Chowan University","City":"Murfreesboro","State":"NC","Denomination":"Baptist","AQI Rank":"747","Graduation Rate":"3.8%","Faculty to Student Ratio":"15.8%","Faculty per Degree Awarded":"5.0%","Instructional Expenses":"12.3%","AQI":"0.36827311675651264","AQI Percentile Display":"11.5%","AQI Tier":"Weak","Latitude":36.4340869,"Longitude":-77.096500672},{"University":"Point University","City":"West Point","State":"GA","Denomination":"Protestant","AQI Rank":"746","Graduation Rate":"3.5%","Faculty to Student Ratio":"15.0%","Faculty per Degree Awarded":"6.4%","Instructional Expenses":"12.1%","AQI":"0.36904282145650064","AQI Percentile Display":"11.6%","AQI Tier":"Weak","Latitude":32.876125,"Longitude":-85.184282},{"University":"McMurry University","City":"Abilene","State":"TX","Denomination":"Methodist","AQI Rank":"745","Graduation Rate":"5.3%","Faculty to Student Ratio":"14.5%","Faculty per Degree Awarded":"5.1%","Instructional Expenses":"12.1%","AQI":"0.3700416113278341","AQI Percentile Display":"11.7%","AQI Tier":"Weak","Latitude":32.429358,"Longitude":-99.7487221774},{"University":"Upper Iowa University","City":"Fayette","State":"IA","Denomination":"Nonsectarian","AQI Rank":"744","Graduation Rate":"6.2%","Faculty to Student Ratio":"14.5%","Faculty per Degree Awarded":"4.3%","Instructional Expenses":"12.0%","AQI":"0.37052191510556537","AQI Percentile Display":"11.9%","AQI Tier":"Weak","Latitude":42.83958545,"Longitude":-91.7933042902},{"University":"Southwestern College","City":"Winfield","State":"KS","Denomination":"Methodist","AQI Rank":"743","Graduation Rate":"4.5%","Faculty to Student Ratio":"15.2%","Faculty per Degree Awarded":"5.4%","Instructional Expenses":"12.1%","AQI":"0.37095857691630074","AQI Percentile Display":"12.0%","AQI Tier":"Weak","Latitude":37.24924525,"Longitude":-96.9740191133},{"University":"Arizona Christian University","City":"Glendale","State":"AZ","Denomination":"Interdenominational","AQI Rank":"742","Graduation Rate":"5.9%","Faculty to Student Ratio":"14.3%","Faculty per Degree Awarded":"4.9%","Instructional Expenses":"12.1%","AQI":"0.3715428957385818","AQI Percentile Display":"12.1%","AQI Tier":"Weak","Latitude":33.62261335,"Longitude":-112.1826058202},{"University":"Paine College","City":"Augusta","State":"GA","Denomination":"Methodist","AQI Rank":"741","Graduation Rate":"0.8%","Faculty to Student Ratio":"15.3%","Faculty per Degree Awarded":"9.0%","Instructional Expenses":"12.1%","AQI":"0.37164373862089356","AQI Percentile Display":"12.2%","AQI Tier":"Weak","Latitude":33.46943155,"Longitude":-81.9956032269},{"University":"Johnson C Smith University","City":"Charlotte","State":"NC","Denomination":"Presbyterian","AQI Rank":"740","Graduation Rate":"8.6%","Faculty to Student Ratio":"14.7%","Faculty per Degree Awarded":"1.8%","Instructional Expenses":"12.1%","AQI":"0.3720223230243733","AQI Percentile Display":"12.3%","AQI Tier":"Weak","Latitude":35.24379475,"Longitude":-80.8554322598},{"University":"University of the Ozarks","City":"Clarksville","State":"AR","Denomination":"Presbyterian","AQI Rank":"739","Graduation Rate":"5.5%","Faculty to Student Ratio":"14.5%","Faculty per Degree Awarded":"5.0%","Instructional Expenses":"12.2%","AQI":"0.37247357735049447","AQI Percentile Display":"12.5%","AQI Tier":"Weak","Latitude":35.47863885,"Longitude":-93.465589006},{"University":"Warner Pacific University","City":"Portland","State":"OR","Denomination":"Church of God","AQI Rank":"738","Graduation Rate":"5.8%","Faculty to Student Ratio":"14.5%","Faculty per Degree Awarded":"4.9%","Instructional Expenses":"12.1%","AQI":"0.37267074944561085","AQI Percentile Display":"12.6%","AQI Tier":"Weak","Latitude":45.5062805,"Longitude":-122.5933849442},{"University":"University of Providence","City":"Great Falls","State":"MT","Denomination":"Catholic","AQI Rank":"737","Graduation Rate":"6.1%","Faculty to Student Ratio":"14.5%","Faculty per Degree Awarded":"4.9%","Instructional Expenses":"12.1%","AQI":"0.3748251778972759","AQI Percentile Display":"12.7%","AQI Tier":"Weak","Latitude":47.49109975,"Longitude":-111.2704632891},{"University":"Lake Erie College","City":"Painesville","State":"OH","Denomination":"Nonsectarian","AQI Rank":"736","Graduation Rate":"5.5%","Faculty to Student Ratio":"14.7%","Faculty per Degree Awarded":"5.3%","Instructional Expenses":"12.1%","AQI":"0.37532608067662154","AQI Percentile Display":"12.8%","AQI Tier":"Weak","Latitude":41.7169934,"Longitude":-81.251841318},{"University":"Erskine College","City":"Due West","State":"SC","Denomination":"Presbyterian","AQI Rank":"735","Graduation Rate":"6.1%","Faculty to Student Ratio":"14.4%","Faculty per Degree Awarded":"5.1%","Instructional Expenses":"12.1%","AQI":"0.37635726562573335","AQI Percentile Display":"12.9%","AQI Tier":"Weak","Latitude":34.33219835,"Longitude":-82.3929983941},{"University":"Rockford University","City":"Rockford","State":"IL","Denomination":"Nonsectarian","AQI Rank":"734","Graduation Rate":"5.8%","Faculty to Student Ratio":"14.6%","Faculty per Degree Awarded":"5.1%","Instructional Expenses":"12.1%","AQI":"0.3768213906929786","AQI Percentile Display":"13.0%","AQI Tier":"Weak","Latitude":42.2683388,"Longitude":-89.01867338},{"University":"Virginia Wesleyan University","City":"Virginia Beach","State":"VA","Denomination":"Methodist","AQI Rank":"733","Graduation Rate":"6.1%","Faculty to Student Ratio":"14.5%","Faculty per Degree Awarded":"5.1%","Instructional Expenses":"12.1%","AQI":"0.3785865341231123","AQI Percentile Display":"13.2%","AQI Tier":"Weak","Latitude":36.86802,"Longitude":-76.1877440355},{"University":"Bloomfield College","City":"Bloomfield","State":"NJ","Denomination":"Presbyterian","AQI Rank":"732","Graduation Rate":"6.3%","Faculty to Student Ratio":"14.6%","Faculty per Degree Awarded":"4.9%","Instructional Expenses":"12.1%","AQI":"0.3797157713443592","AQI Percentile Display":"13.3%","AQI Tier":"Weak","Latitude":40.79519845,"Longitude":-74.193824556},{"University":"Union College","City":"Barbourville","State":"KY","Denomination":"Methodist","AQI Rank":"731","Graduation Rate":"6.2%","Faculty to Student Ratio":"14.7%","Faculty per Degree Awarded":"5.0%","Instructional Expenses":"12.1%","AQI":"0.3798107409559596","AQI Percentile Display":"13.4%","AQI Tier":"Weak","Latitude":36.8720992,"Longitude":-83.8879236991},{"University":"American Baptist College","City":"Nashville","State":"TN","Denomination":"Baptist","AQI Rank":"730","Graduation Rate":"9.5%","Faculty to Student Ratio":"13.2%","Faculty per Degree Awarded":"3.4%","Instructional Expenses":"11.9%","AQI":"0.38048464697105294","AQI Percentile Display":"13.5%","AQI Tier":"Weak","Latitude":36.2022777,"Longitude":-86.7902765},{"University":"Montreat College","City":"Montreat","State":"NC","Denomination":"Interdenominational","AQI Rank":"729","Graduation Rate":"6.6%","Faculty to Student Ratio":"14.4%","Faculty per Degree Awarded":"5.0%","Instructional Expenses":"12.1%","AQI":"0.3812747568386695","AQI Percentile Display":"13.6%","AQI Tier":"Weak","Latitude":35.6459434,"Longitude":-82.2970364},{"University":"Warren Wilson College","City":"Swannanoa","State":"NC","Denomination":"Presbyterian","AQI Rank":"728","Graduation Rate":"6.0%","Faculty to Student Ratio":"14.7%","Faculty per Degree Awarded":"5.5%","Instructional Expenses":"12.1%","AQI":"0.3829656046421552","AQI Percentile Display":"13.8%","AQI Tier":"Weak","Latitude":35.610945,"Longitude":-82.442949},{"University":"Reinhardt University","City":"Waleska","State":"GA","Denomination":"Methodist","AQI Rank":"727","Graduation Rate":"6.7%","Faculty to Student Ratio":"14.5%","Faculty per Degree Awarded":"5.0%","Instructional Expenses":"12.1%","AQI":"0.38350915459703067","AQI Percentile Display":"13.9%","AQI Tier":"Weak","Latitude":34.32186065,"Longitude":-84.5527439665},{"University":"Brevard College","City":"Brevard","State":"NC","Denomination":"Methodist","AQI Rank":"726","Graduation Rate":"6.7%","Faculty to Student Ratio":"14.6%","Faculty per Degree Awarded":"5.1%","Instructional Expenses":"12.1%","AQI":"0.3837216870670247","AQI Percentile Display":"14.0%","AQI Tier":"Weak","Latitude":35.237431,"Longitude":-82.7264112203},{"University":"Veritas Baptist College","City":"Lawrenceburg","State":"IN","Denomination":"Baptist","AQI Rank":"725","Graduation Rate":"5.6%","Faculty to Student Ratio":"15.8%","Faculty per Degree Awarded":"4.9%","Instructional Expenses":"12.1%","AQI":"0.3840208601464931","AQI Percentile Display":"14.1%","AQI Tier":"Weak","Latitude":39.097061,"Longitude":-84.858938},{"University":"Madonna University","City":"Livonia","State":"MI","Denomination":"Catholic","AQI Rank":"724","Graduation Rate":"6.8%","Faculty to Student Ratio":"14.6%","Faculty per Degree Awarded":"5.0%","Instructional Expenses":"12.1%","AQI":"0.3851547269559434","AQI Percentile Display":"14.2%","AQI Tier":"Weak","Latitude":42.3911354,"Longitude":-83.4103413129},{"University":"Thiel College","City":"Greenville","State":"PA","Denomination":"Lutheran","AQI Rank":"723","Graduation Rate":"6.9%","Faculty to Student Ratio":"14.5%","Faculty per Degree Awarded":"5.0%","Instructional Expenses":"12.1%","AQI":"0.38522320676818617","AQI Percentile Display":"14.4%","AQI Tier":"Weak","Latitude":41.41321855,"Longitude":-80.3857097541},{"University":"University of Dubuque","City":"Dubuque","State":"IA","Denomination":"Presbyterian","AQI Rank":"722","Graduation Rate":"6.1%","Faculty to Student Ratio":"15.1%","Faculty per Degree Awarded":"5.0%","Instructional Expenses":"12.3%","AQI":"0.3854490583354223","AQI Percentile Display":"14.5%","AQI Tier":"Weak","Latitude":42.49510235,"Longitude":-90.6965538516},{"University":"St. Thomas University","City":"Miami Gardens","State":"FL","Denomination":"Catholic","AQI Rank":"721","Graduation Rate":"7.2%","Faculty to Student Ratio":"14.4%","Faculty per Degree Awarded":"4.9%","Instructional Expenses":"12.1%","AQI":"0.3861458111250029","AQI Percentile Display":"14.6%","AQI Tier":"Weak","Latitude":25.92128605,"Longitude":-80.2564809132},{"University":"Donnelly College","City":"Kansas City","State":"KS","Denomination":"Catholic","AQI Rank":"720","Graduation Rate":"6.8%","Faculty to Student Ratio":"14.7%","Faculty per Degree Awarded":"5.0%","Instructional Expenses":"12.1%","AQI":"0.38621921817597543","AQI Percentile Display":"14.7%","AQI Tier":"Weak","Latitude":39.1126406,"Longitude":-94.6509576554},{"University":"University of Charleston","City":"Charleston","State":"WV","Denomination":"Nonsectarian","AQI Rank":"719","Graduation Rate":"7.3%","Faculty to Student Ratio":"14.5%","Faculty per Degree Awarded":"4.9%","Instructional Expenses":"12.1%","AQI":"0.3871962551866965","AQI Percentile Display":"14.8%","AQI Tier":"Weak","Latitude":38.33293915,"Longitude":-81.6168852541},{"University":"Maharishi International University","City":"Fairfield","State":"IA","Denomination":"Nonsectarian","AQI Rank":"718","Graduation Rate":"7.5%","Faculty to Student Ratio":"14.3%","Faculty per Degree Awarded":"4.8%","Instructional Expenses":"12.1%","AQI":"0.3875865932408742","AQI Percentile Display":"15.0%","AQI Tier":"Weak","Latitude":41.023532,"Longitude":-91.9639669663},{"University":"University of Pikeville","City":"Pikeville","State":"KY","Denomination":"Presbyterian","AQI Rank":"717","Graduation Rate":"7.2%","Faculty to Student Ratio":"14.5%","Faculty per Degree Awarded":"5.0%","Instructional Expenses":"12.1%","AQI":"0.3876839378650442","AQI Percentile Display":"15.1%","AQI Tier":"Weak","Latitude":37.47482525,"Longitude":-82.5210015724},{"University":"Fresno Pacific University","City":"Fresno","State":"CA","Denomination":"Anabaptist","AQI Rank":"716","Graduation Rate":"10.8%","Faculty to Student Ratio":"10.9%","Faculty per Degree Awarded":"5.1%","Instructional Expenses":"12.0%","AQI":"0.38865822389417914","AQI Percentile Display":"15.2%","AQI Tier":"Weak","Latitude":36.72601005,"Longitude":-119.7341901041},{"University":"Indiana Institute of Technology","City":"Fort Wayne","State":"IN","Denomination":"Nonsectarian","AQI Rank":"715","Graduation Rate":"7.6%","Faculty to Student Ratio":"14.4%","Faculty per Degree Awarded":"4.9%","Instructional Expenses":"12.1%","AQI":"0.3891596148354023","AQI Percentile Display":"15.3%","AQI Tier":"Weak","Latitude":41.07754835,"Longitude":-85.1176847367},{"University":"MidAmerica Nazarene University","City":"Olathe","State":"KS","Denomination":"Protestant","AQI Rank":"714","Graduation Rate":"8.1%","Faculty to Student Ratio":"14.3%","Faculty per Degree Awarded":"4.4%","Instructional Expenses":"12.1%","AQI":"0.38957138006186515","AQI Percentile Display":"15.4%","AQI Tier":"Weak","Latitude":38.87397135,"Longitude":-94.7821899358},{"University":"Life University","City":"Marietta","State":"GA","Denomination":"Nonsectarian","AQI Rank":"713","Graduation Rate":"7.7%","Faculty to Student Ratio":"14.4%","Faculty per Degree Awarded":"4.9%","Instructional Expenses":"12.1%","AQI":"0.39077863522087475","AQI Percentile Display":"15.5%","AQI Tier":"Weak","Latitude":33.9311113,"Longitude":-84.5174087818},{"University":"Tusculum University","City":"Greeneville","State":"TN","Denomination":"Presbyterian","AQI Rank":"712","Graduation Rate":"7.5%","Faculty to Student Ratio":"14.6%","Faculty per Degree Awarded":"4.9%","Instructional Expenses":"12.1%","AQI":"0.3907974638726458","AQI Percentile Display":"15.7%","AQI Tier":"Weak","Latitude":36.1720416,"Longitude":-82.7592007965},{"University":"Marietta College","City":"Marietta","State":"OH","Denomination":"Nonsectarian","AQI Rank":"711","Graduation Rate":"7.2%","Faculty to Student Ratio":"14.7%","Faculty per Degree Awarded":"5.1%","Instructional Expenses":"12.1%","AQI":"0.39122515296857896","AQI Percentile Display":"15.8%","AQI Tier":"Weak","Latitude":39.41609505,"Longitude":-81.4484225136},{"University":"Columbia College Chicago","City":"Chicago","State":"IL","Denomination":"Nonsectarian","AQI Rank":"710","Graduation Rate":"7.6%","Faculty to Student Ratio":"14.4%","Faculty per Degree Awarded":"5.1%","Instructional Expenses":"12.1%","AQI":"0.39201528884022246","AQI Percentile Display":"15.9%","AQI Tier":"Weak","Latitude":41.8742404,"Longitude":-87.6247913},{"University":"University of Mobile","City":"Mobile","State":"AL","Denomination":"Baptist","AQI Rank":"709","Graduation Rate":"7.6%","Faculty to Student Ratio":"14.5%","Faculty per Degree Awarded":"5.1%","Instructional Expenses":"12.1%","AQI":"0.3924742646580265","AQI Percentile Display":"16.0%","AQI Tier":"Weak","Latitude":30.7919746,"Longitude":-88.1312415382},{"University":"Maine College of Art & Design","City":"Portland","State":"ME","Denomination":"Nonsectarian","AQI Rank":"708","Graduation Rate":"7.1%","Faculty to Student Ratio":"14.7%","Faculty per Degree Awarded":"5.3%","Instructional Expenses":"12.1%","AQI":"0.39300344170105733","AQI Percentile Display":"16.1%","AQI Tier":"Weak","Latitude":43.659222,"Longitude":-70.256523},{"University":"University of Health Sciences and Pharmacy in St. Louis","City":"Saint Louis","State":"MO","Denomination":"Nonsectarian","AQI Rank":"707","Graduation Rate":"18.0%","Faculty to Student Ratio":"5.6%","Faculty per Degree Awarded":"5.3%","Instructional Expenses":"10.5%","AQI":"0.3932662784880485","AQI Percentile Display":"16.2%","AQI Tier":"Weak","Latitude":38.63708455,"Longitude":-90.2609963703},{"University":"Landmark College","City":"Putney","State":"VT","Denomination":"Other","AQI Rank":"706","Graduation Rate":"8.0%","Faculty to Student Ratio":"14.4%","Faculty per Degree Awarded":"5.0%","Instructional Expenses":"12.1%","AQI":"0.39463357877100486","AQI Percentile Display":"16.4%","AQI Tier":"Weak","Latitude":42.97580925,"Longitude":-72.5109842948},{"University":"The University of Olivet","City":"Olivet","State":"MI","Denomination":"United Church of Christ","AQI Rank":"705","Graduation Rate":"7.9%","Faculty to Student Ratio":"14.5%","Faculty per Degree Awarded":"5.0%","Instructional Expenses":"12.1%","AQI":"0.394791445109751","AQI Percentile Display":"16.5%","AQI Tier":"Weak","Latitude":42.441463,"Longitude":-84.92437},{"University":"Missouri Baptist University","City":"Saint Louis","State":"MO","Denomination":"Baptist","AQI Rank":"704","Graduation Rate":"8.2%","Faculty to Student Ratio":"14.3%","Faculty per Degree Awarded":"5.0%","Instructional Expenses":"12.1%","AQI":"0.3952133239479108","AQI Percentile Display":"16.6%","AQI Tier":"Weak","Latitude":38.6419861,"Longitude":-90.4622980639},{"University":"Fairleigh Dickinson University-Metropolitan Campus","City":"Teaneck","State":"NJ","Denomination":"Nonsectarian","AQI Rank":"703","Graduation Rate":"8.4%","Faculty to Student Ratio":"14.3%","Faculty per Degree Awarded":"4.8%","Instructional Expenses":"12.1%","AQI":"0.39537576662096086","AQI Percentile Display":"16.7%","AQI Tier":"Weak","Latitude":40.89807275,"Longitude":-74.0307211403},{"University":"Rochester University","City":"Rochester Hills","State":"MI","Denomination":"Churches of Christ","AQI Rank":"702","Graduation Rate":"7.9%","Faculty to Student Ratio":"14.5%","Faculty per Degree Awarded":"5.1%","Instructional Expenses":"12.1%","AQI":"0.39541094531368104","AQI Percentile Display":"16.8%","AQI Tier":"Weak","Latitude":42.66870805,"Longitude":-83.1435408514},{"University":"Concordia University Texas","City":"Austin","State":"TX","Denomination":"Lutheran","AQI Rank":"701","Graduation Rate":"8.8%","Faculty to Student Ratio":"14.1%","Faculty per Degree Awarded":"4.6%","Instructional Expenses":"12.1%","AQI":"0.3956931901781502","AQI Percentile Display":"17.0%","AQI Tier":"Weak","Latitude":30.4187934,"Longitude":-97.8384763659},{"University":"Coker University","City":"Hartsville","State":"SC","Denomination":"Nonsectarian","AQI Rank":"700","Graduation Rate":"8.1%","Faculty to Student Ratio":"14.4%","Faculty per Degree Awarded":"5.0%","Instructional Expenses":"12.1%","AQI":"0.3957986830351178","AQI Percentile Display":"17.1%","AQI Tier":"Weak","Latitude":34.3777406,"Longitude":-80.0674304},{"University":"Art Academy of Cincinnati","City":"Cincinnati","State":"OH","Denomination":"Nonsectarian","AQI Rank":"699","Graduation Rate":"6.6%","Faculty to Student Ratio":"14.7%","Faculty per Degree Awarded":"6.2%","Instructional Expenses":"12.0%","AQI":"0.3964320423376969","AQI Percentile Display":"17.2%","AQI Tier":"Weak","Latitude":39.1088449,"Longitude":-84.5138667896},{"University":"Bethune-Cookman University","City":"Daytona Beach","State":"FL","Denomination":"Methodist","AQI Rank":"698","Graduation Rate":"7.0%","Faculty to Student Ratio":"14.8%","Faculty per Degree Awarded":"5.8%","Instructional Expenses":"12.1%","AQI":"0.39746724054887306","AQI Percentile Display":"17.3%","AQI Tier":"Weak","Latitude":29.21185355,"Longitude":-81.031982501},{"University":"King University","City":"Bristol","State":"TN","Denomination":"Presbyterian","AQI Rank":"697","Graduation Rate":"7.8%","Faculty to Student Ratio":"14.9%","Faculty per Degree Awarded":"4.9%","Instructional Expenses":"12.1%","AQI":"0.3978556094610699","AQI Percentile Display":"17.4%","AQI Tier":"Weak","Latitude":36.5877694,"Longitude":-82.1598014152},{"University":"Saint Elizabeth University","City":"Morristown","State":"NJ","Denomination":"Catholic","AQI Rank":"696","Graduation Rate":"8.2%","Faculty to Student Ratio":"14.6%","Faculty per Degree Awarded":"5.0%","Instructional Expenses":"12.1%","AQI":"0.39934424946204655","AQI Percentile Display":"17.6%","AQI Tier":"Weak","Latitude":40.796638,"Longitude":-74.481598},{"University":"Franciscan Missionaries of Our Lady University","City":"Baton Rouge","State":"LA","Denomination":"Catholic","AQI Rank":"695","Graduation Rate":"8.3%","Faculty to Student Ratio":"14.6%","Faculty per Degree Awarded":"5.0%","Instructional Expenses":"12.1%","AQI":"0.3996931463938693","AQI Percentile Display":"17.7%","AQI Tier":"Weak","Latitude":30.40067515,"Longitude":-91.1092466603},{"University":"Turtle Mountain Community College","City":"Belcourt","State":"ND","Denomination":"Nonsectarian","AQI Rank":"694","Graduation Rate":"7.5%","Faculty to Student Ratio":"14.6%","Faculty per Degree Awarded":"5.8%","Instructional Expenses":"12.1%","AQI":"0.4000954643760239","AQI Percentile Display":"17.8%","AQI Tier":"Weak","Latitude":48.839153,"Longitude":-99.744853},{"University":"Midland University","City":"Fremont","State":"NE","Denomination":"Lutheran","AQI Rank":"693","Graduation Rate":"8.1%","Faculty to Student Ratio":"14.7%","Faculty per Degree Awarded":"5.3%","Instructional Expenses":"12.1%","AQI":"0.401378699959432","AQI Percentile Display":"17.9%","AQI Tier":"Weak","Latitude":41.43827405,"Longitude":-96.4877200653},{"University":"Trinity Bible College and Graduate School","City":"Ellendale","State":"ND","Denomination":"Pentecostal","AQI Rank":"692","Graduation Rate":"9.0%","Faculty to Student Ratio":"14.3%","Faculty per Degree Awarded":"4.8%","Instructional Expenses":"12.1%","AQI":"0.4024250384454675","AQI Percentile Display":"18.0%","AQI Tier":"Weak","Latitude":46.002563,"Longitude":-98.527345},{"University":"Piedmont University","City":"Demorest","State":"GA","Denomination":"United Church of Christ","AQI Rank":"691","Graduation Rate":"9.5%","Faculty to Student Ratio":"14.3%","Faculty per Degree Awarded":"4.3%","Instructional Expenses":"12.1%","AQI":"0.40289590236663464","AQI Percentile Display":"18.2%","AQI Tier":"Weak","Latitude":34.57027745,"Longitude":-83.5417106792},{"University":"William Jessup University","City":"Rocklin","State":"CA","Denomination":"Protestant","AQI Rank":"690","Graduation Rate":"8.6%","Faculty to Student Ratio":"14.6%","Faculty per Degree Awarded":"5.1%","Instructional Expenses":"12.1%","AQI":"0.4031896726040781","AQI Percentile Display":"18.3%","AQI Tier":"Weak","Latitude":38.8200917,"Longitude":-121.2924903548},{"University":"Otis College of Art and Design","City":"Los Angeles","State":"CA","Denomination":"Nonsectarian","AQI Rank":"689","Graduation Rate":"8.1%","Faculty to Student Ratio":"14.6%","Faculty per Degree Awarded":"5.6%","Instructional Expenses":"12.1%","AQI":"0.40378527012062687","AQI Percentile Display":"18.4%","AQI Tier":"Weak","Latitude":33.95673905,"Longitude":-118.4171692394},{"University":"Hawaii Pacific University","City":"Honolulu","State":"HI","Denomination":"Nonsectarian","AQI Rank":"688","Graduation Rate":"8.7%","Faculty to Student Ratio":"14.4%","Faculty per Degree Awarded":"5.2%","Instructional Expenses":"12.1%","AQI":"0.4038466000643234","AQI Percentile Display":"18.5%","AQI Tier":"Weak","Latitude":21.37952275,"Longitude":-157.7830819457},{"University":"Thomas More University","City":"Crestview Hills","State":"KY","Denomination":"Catholic","AQI Rank":"687","Graduation Rate":"9.3%","Faculty to Student Ratio":"14.4%","Faculty per Degree Awarded":"4.9%","Instructional Expenses":"12.1%","AQI":"0.4074199490488684","AQI Percentile Display":"18.6%","AQI Tier":"Weak","Latitude":39.0209185,"Longitude":-84.5676955599},{"University":"Crown College","City":"Saint Bonifacius","State":"MN","Denomination":"Evangelical Christian","AQI Rank":"686","Graduation Rate":"9.9%","Faculty to Student Ratio":"14.2%","Faculty per Degree Awarded":"4.7%","Instructional Expenses":"12.1%","AQI":"0.4080324285317994","AQI Percentile Display":"18.7%","AQI Tier":"Weak","Latitude":44.88413435,"Longitude":-93.7425643312},{"University":"Bryn Athyn College of the New Church","City":"Bryn Athyn","State":"PA","Denomination":"Other","AQI Rank":"685","Graduation Rate":"8.9%","Faculty to Student Ratio":"14.6%","Faculty per Degree Awarded":"5.2%","Instructional Expenses":"12.1%","AQI":"0.40849316945854847","AQI Percentile Display":"18.9%","AQI Tier":"Weak","Latitude":40.13487835,"Longitude":-75.0601346954},{"University":"Brenau University","City":"Gainesville","State":"GA","Denomination":"Nonsectarian","AQI Rank":"684","Graduation Rate":"9.1%","Faculty to Student Ratio":"14.6%","Faculty per Degree Awarded":"5.0%","Instructional Expenses":"12.1%","AQI":"0.40858906359311586","AQI Percentile Display":"19.0%","AQI Tier":"Weak","Latitude":34.30369005,"Longitude":-83.8223537789},{"University":"Bethany College","City":"Bethany","State":"WV","Denomination":"Protestant","AQI Rank":"683","Graduation Rate":"8.9%","Faculty to Student Ratio":"14.5%","Faculty per Degree Awarded":"5.5%","Instructional Expenses":"12.1%","AQI":"0.4091547974147053","AQI Percentile Display":"19.1%","AQI Tier":"Weak","Latitude":40.20580445,"Longitude":-80.5616585673},{"University":"Concordia University-Chicago","City":"River Forest","State":"IL","Denomination":"Lutheran","AQI Rank":"682","Graduation Rate":"9.4%","Faculty to Student Ratio":"14.8%","Faculty per Degree Awarded":"4.8%","Instructional Expenses":"12.1%","AQI":"0.4108886161159043","AQI Percentile Display":"19.2%","AQI Tier":"Weak","Latitude":41.8993058,"Longitude":-87.8094575608},{"University":"Toccoa Falls College","City":"Toccoa Falls","State":"GA","Denomination":"Evangelical Christian","AQI Rank":"681","Graduation Rate":"9.4%","Faculty to Student Ratio":"14.4%","Faculty per Degree Awarded":"5.2%","Instructional Expenses":"12.1%","AQI":"0.41121466050276745","AQI Percentile Display":"19.3%","AQI Tier":"Weak","Latitude":34.5937089,"Longitude":-83.3563465736},{"University":"Northwest Nazarene University","City":"Nampa","State":"ID","Denomination":"Protestant","AQI Rank":"680","Graduation Rate":"11.1%","Faculty to Student Ratio":"13.0%","Faculty per Degree Awarded":"5.1%","Instructional Expenses":"11.9%","AQI":"0.41129134178969773","AQI Percentile Display":"19.4%","AQI Tier":"Weak","Latitude":43.5610104,"Longitude":-116.5658239709},{"University":"Dunwoody College of Technology","City":"Minneapolis","State":"MN","Denomination":"Nonsectarian","AQI Rank":"679","Graduation Rate":"9.5%","Faculty to Student Ratio":"14.5%","Faculty per Degree Awarded":"5.0%","Instructional Expenses":"12.2%","AQI":"0.41129734348561536","AQI Percentile Display":"19.6%","AQI Tier":"Weak","Latitude":44.9731679,"Longitude":-93.2906677337},{"University":"Vaughn College of Aeronautics and Technology","City":"Flushing","State":"NY","Denomination":"Nonsectarian","AQI Rank":"678","Graduation Rate":"9.5%","Faculty to Student Ratio":"14.6%","Faculty per Degree Awarded":"4.9%","Instructional Expenses":"12.1%","AQI":"0.41171113692160555","AQI Percentile Display":"19.7%","AQI Tier":"Weak","Latitude":40.736881,"Longitude":-73.816681},{"University":"Barton College","City":"Wilson","State":"NC","Denomination":"Protestant","AQI Rank":"677","Graduation Rate":"9.8%","Faculty to Student Ratio":"14.4%","Faculty per Degree Awarded":"4.9%","Instructional Expenses":"12.1%","AQI":"0.41249616590580523","AQI Percentile Display":"19.8%","AQI Tier":"Weak","Latitude":35.7353597,"Longitude":-77.9124691415},{"University":"Oakwood University","City":"Huntsville","State":"AL","Denomination":"Seventh Day Adventist","AQI Rank":"676","Graduation Rate":"8.3%","Faculty to Student Ratio":"14.5%","Faculty per Degree Awarded":"6.4%","Instructional Expenses":"12.1%","AQI":"0.41325715754157333","AQI Percentile Display":"19.9%","AQI Tier":"Weak","Latitude":34.758802,"Longitude":-86.6545991179},{"University":"Albion College","City":"Albion","State":"MI","Denomination":"Methodist","AQI Rank":"675","Graduation Rate":"9.3%","Faculty to Student Ratio":"14.6%","Faculty per Degree Awarded":"5.3%","Instructional Expenses":"12.1%","AQI":"0.41338502301023666","AQI Percentile Display":"20.0%","AQI Tier":"Questionable","Latitude":42.2437255,"Longitude":-84.7429009549},{"University":"Barry University","City":"Miami","State":"FL","Denomination":"Catholic","AQI Rank":"674","Graduation Rate":"9.9%","Faculty to Student Ratio":"14.4%","Faculty per Degree Awarded":"4.9%","Instructional Expenses":"12.1%","AQI":"0.4135362622327961","AQI Percentile Display":"20.2%","AQI Tier":"Questionable","Latitude":25.8790289,"Longitude":-80.2015168072},{"University":"Trinity International University-Illinois","City":"Deerfield","State":"IL","Denomination":"Protestant","AQI Rank":"673","Graduation Rate":"10.3%","Faculty to Student Ratio":"14.3%","Faculty per Degree Awarded":"4.7%","Instructional Expenses":"12.1%","AQI":"0.4140981218210642","AQI Percentile Display":"20.3%","AQI Tier":"Questionable","Latitude":42.19529545,"Longitude":-87.8791036043},{"University":"Mars Hill University","City":"Mars Hill","State":"NC","Denomination":"Baptist","AQI Rank":"672","Graduation Rate":"9.4%","Faculty to Student Ratio":"14.6%","Faculty per Degree Awarded":"5.2%","Instructional Expenses":"12.1%","AQI":"0.4141537504615207","AQI Percentile Display":"20.4%","AQI Tier":"Questionable","Latitude":35.827147,"Longitude":-82.5529516616},{"University":"Methodist University","City":"Fayetteville","State":"NC","Denomination":"Methodist","AQI Rank":"671","Graduation Rate":"9.3%","Faculty to Student Ratio":"14.7%","Faculty per Degree Awarded":"5.4%","Instructional Expenses":"12.1%","AQI":"0.41446109754908667","AQI Percentile Display":"20.5%","AQI Tier":"Questionable","Latitude":35.13408025,"Longitude":-78.8724299172},{"University":"Clark Atlanta University","City":"Atlanta","State":"GA","Denomination":"Methodist","AQI Rank":"670","Graduation Rate":"9.8%","Faculty to Student Ratio":"14.5%","Faculty per Degree Awarded":"5.1%","Instructional Expenses":"12.1%","AQI":"0.41453116160083636","AQI Percentile Display":"20.6%","AQI Tier":"Questionable","Latitude":33.75012475,"Longitude":-84.4115889745},{"University":"William Woods University","City":"Fulton","State":"MO","Denomination":"Protestant","AQI Rank":"669","Graduation Rate":"8.5%","Faculty to Student Ratio":"15.0%","Faculty per Degree Awarded":"5.9%","Instructional Expenses":"12.1%","AQI":"0.4149529004582487","AQI Percentile Display":"20.8%","AQI Tier":"Questionable","Latitude":38.8629209,"Longitude":-91.9488090968},{"University":"Quincy University","City":"Quincy","State":"IL","Denomination":"Catholic","AQI Rank":"668","Graduation Rate":"10.0%","Faculty to Student Ratio":"14.4%","Faculty per Degree Awarded":"5.0%","Instructional Expenses":"12.1%","AQI":"0.4150888758283028","AQI Percentile Display":"20.9%","AQI Tier":"Questionable","Latitude":39.95544185,"Longitude":-91.3896918034},{"University":"Roosevelt University","City":"Chicago","State":"IL","Denomination":"Nonsectarian","AQI Rank":"667","Graduation Rate":"9.8%","Faculty to Student Ratio":"14.6%","Faculty per Degree Awarded":"5.0%","Instructional Expenses":"12.1%","AQI":"0.4152516371735507","AQI Percentile Display":"21.0%","AQI Tier":"Questionable","Latitude":41.87613485,"Longitude":-87.6251816505},{"University":"Talmudic College of Florida","City":"Miami Beach","State":"FL","Denomination":"Jewish","AQI Rank":"666","Graduation Rate":"7.8%","Faculty to Student Ratio":"15.3%","Faculty per Degree Awarded":"6.2%","Instructional Expenses":"12.3%","AQI":"0.4156255852577944","AQI Percentile Display":"21.1%","AQI Tier":"Questionable","Latitude":25.79224,"Longitude":-80.13485},{"University":"Mary Baldwin University","City":"Staunton","State":"VA","Denomination":"Presbyterian","AQI Rank":"665","Graduation Rate":"10.0%","Faculty to Student Ratio":"14.6%","Faculty per Degree Awarded":"4.9%","Instructional Expenses":"12.1%","AQI":"0.4159292629353203","AQI Percentile Display":"21.2%","AQI Tier":"Questionable","Latitude":38.15402875,"Longitude":-79.0681974046},{"University":"Saint Leo University","City":"Saint Leo","State":"FL","Denomination":"Catholic","AQI Rank":"664","Graduation Rate":"10.4%","Faculty to Student Ratio":"14.3%","Faculty per Degree Awarded":"4.8%","Instructional Expenses":"12.1%","AQI":"0.4162063285963829","AQI Percentile Display":"21.3%","AQI Tier":"Questionable","Latitude":28.3385394,"Longitude":-82.2580705436},{"University":"Colby-Sawyer College","City":"New London","State":"NH","Denomination":"Nonsectarian","AQI Rank":"663","Graduation Rate":"9.8%","Faculty to Student Ratio":"14.8%","Faculty per Degree Awarded":"5.0%","Instructional Expenses":"12.1%","AQI":"0.4162272516514111","AQI Percentile Display":"21.5%","AQI Tier":"Questionable","Latitude":43.4141177,"Longitude":-71.9753244405},{"University":"North Carolina Wesleyan University","City":"Rocky Mount","State":"NC","Denomination":"Methodist","AQI Rank":"662","Graduation Rate":"8.2%","Faculty to Student Ratio":"16.4%","Faculty per Degree Awarded":"4.9%","Instructional Expenses":"12.3%","AQI":"0.41656366568165054","AQI Percentile Display":"21.6%","AQI Tier":"Questionable","Latitude":36.01543505,"Longitude":-77.7749097888},{"University":"New England Institute of Technology","City":"East Greenwich","State":"RI","Denomination":"Nonsectarian","AQI Rank":"661","Graduation Rate":"10.2%","Faculty to Student Ratio":"14.5%","Faculty per Degree Awarded":"4.8%","Instructional Expenses":"12.2%","AQI":"0.41716958013692407","AQI Percentile Display":"21.7%","AQI Tier":"Questionable","Latitude":41.6602712,"Longitude":-71.5013549918},{"University":"The College of Idaho","City":"Caldwell","State":"ID","Denomination":"Presbyterian","AQI Rank":"660","Graduation Rate":"10.1%","Faculty to Student Ratio":"14.6%","Faculty per Degree Awarded":"5.1%","Instructional Expenses":"12.1%","AQI":"0.4184157798612772","AQI Percentile Display":"21.8%","AQI Tier":"Questionable","Latitude":43.645339,"Longitude":-116.680565},{"University":"Dean College","City":"Franklin","State":"MA","Denomination":"Nonsectarian","AQI Rank":"659","Graduation Rate":"10.3%","Faculty to Student Ratio":"14.5%","Faculty per Degree Awarded":"5.0%","Instructional Expenses":"12.1%","AQI":"0.41872118429429767","AQI Percentile Display":"22.0%","AQI Tier":"Questionable","Latitude":42.08465315,"Longitude":-71.3998377723},{"University":"Kuyper College","City":"Grand Rapids","State":"MI","Denomination":"Protestant","AQI Rank":"658","Graduation Rate":"10.7%","Faculty to Student Ratio":"11.7%","Faculty per Degree Awarded":"7.5%","Instructional Expenses":"11.9%","AQI":"0.41872603303010153","AQI Percentile Display":"22.1%","AQI Tier":"Questionable","Latitude":43.0226231,"Longitude":-85.5921898809},{"University":"Cornish College of the Arts","City":"Seattle","State":"WA","Denomination":"Nonsectarian","AQI Rank":"657","Graduation Rate":"10.8%","Faculty to Student Ratio":"15.9%","Faculty per Degree Awarded":"3.1%","Instructional Expenses":"12.1%","AQI":"0.4192388485937158","AQI Percentile Display":"22.2%","AQI Tier":"Questionable","Latitude":47.61680045,"Longitude":-122.33586595},{"University":"Culver-Stockton College","City":"Canton","State":"MO","Denomination":"Protestant","AQI Rank":"656","Graduation Rate":"10.4%","Faculty to Student Ratio":"14.4%","Faculty per Degree Awarded":"5.0%","Instructional Expenses":"12.1%","AQI":"0.4194493738599943","AQI Percentile Display":"22.3%","AQI Tier":"Questionable","Latitude":40.1288229,"Longitude":-91.5316408},{"University":"Converse University","City":"Spartanburg","State":"SC","Denomination":"Nonsectarian","AQI Rank":"655","Graduation Rate":"15.2%","Faculty to Student Ratio":"14.6%","Faculty per Degree Awarded":"0.0%","Instructional Expenses":"12.1%","AQI":"0.41950446044256123","AQI Percentile Display":"22.4%","AQI Tier":"Questionable","Latitude":34.95798605,"Longitude":-81.9191330667},{"University":"Georgetown College","City":"Georgetown","State":"KY","Denomination":"Baptist","AQI Rank":"654","Graduation Rate":"9.8%","Faculty to Student Ratio":"14.4%","Faculty per Degree Awarded":"5.7%","Instructional Expenses":"12.1%","AQI":"0.4200400839634593","AQI Percentile Display":"22.5%","AQI Tier":"Questionable","Latitude":38.20692075,"Longitude":-84.5540343488},{"University":"Houghton University","City":"Houghton","State":"NY","Denomination":"Wesleyan","AQI Rank":"653","Graduation Rate":"10.2%","Faculty to Student Ratio":"14.7%","Faculty per Degree Awarded":"5.0%","Instructional Expenses":"12.1%","AQI":"0.4202166022552415","AQI Percentile Display":"22.7%","AQI Tier":"Questionable","Latitude":42.426287,"Longitude":-78.1554628922},{"University":"Boise Bible College","City":"Boise","State":"ID","Denomination":"Interdenominational","AQI Rank":"652","Graduation Rate":"9.7%","Faculty to Student Ratio":"14.6%","Faculty per Degree Awarded":"5.8%","Instructional Expenses":"12.1%","AQI":"0.42188927372185014","AQI Percentile Display":"22.8%","AQI Tier":"Questionable","Latitude":43.615791,"Longitude":-116.201576},{"University":"Concordia University-Saint Paul","City":"Saint Paul","State":"MN","Denomination":"Lutheran","AQI Rank":"651","Graduation Rate":"11.1%","Faculty to Student Ratio":"14.3%","Faculty per Degree Awarded":"4.8%","Instructional Expenses":"12.1%","AQI":"0.42214787904208084","AQI Percentile Display":"22.9%","AQI Tier":"Questionable","Latitude":44.9497767,"Longitude":-93.1573162675},{"University":"Albright College","City":"Reading","State":"PA","Denomination":"Methodist","AQI Rank":"650","Graduation Rate":"9.5%","Faculty to Student Ratio":"14.8%","Faculty per Degree Awarded":"5.8%","Instructional Expenses":"12.2%","AQI":"0.4226544035592344","AQI Percentile Display":"23.0%","AQI Tier":"Questionable","Latitude":40.3627666,"Longitude":-75.9117628676},{"University":"William Carey University","City":"Hattiesburg","State":"MS","Denomination":"Baptist","AQI Rank":"649","Graduation Rate":"10.9%","Faculty to Student Ratio":"14.4%","Faculty per Degree Awarded":"4.9%","Instructional Expenses":"12.1%","AQI":"0.4231010806299719","AQI Percentile Display":"23.1%","AQI Tier":"Questionable","Latitude":31.3037101,"Longitude":-89.2927638655},{"University":"Keuka College","City":"Keuka Park","State":"NY","Denomination":"Baptist","AQI Rank":"648","Graduation Rate":"10.9%","Faculty to Student Ratio":"14.4%","Faculty per Degree Awarded":"5.0%","Instructional Expenses":"12.1%","AQI":"0.4233115528676466","AQI Percentile Display":"23.2%","AQI Tier":"Questionable","Latitude":42.6147014,"Longitude":-77.0899573632},{"University":"William Peace University","City":"Raleigh","State":"NC","Denomination":"Presbyterian","AQI Rank":"647","Graduation Rate":"10.8%","Faculty to Student Ratio":"14.5%","Faculty per Degree Awarded":"5.0%","Instructional Expenses":"12.1%","AQI":"0.4234495527301407","AQI Percentile Display":"23.4%","AQI Tier":"Questionable","Latitude":35.7895729,"Longitude":-78.6372258598},{"University":"University of Jamestown","City":"Jamestown","State":"ND","Denomination":"Presbyterian","AQI Rank":"646","Graduation Rate":"10.5%","Faculty to Student Ratio":"14.6%","Faculty per Degree Awarded":"5.2%","Instructional Expenses":"12.1%","AQI":"0.4242019581374835","AQI Percentile Display":"23.5%","AQI Tier":"Questionable","Latitude":46.9138872,"Longitude":-98.6970337076},{"University":"Stephens College","City":"Columbia","State":"MO","Denomination":"Nonsectarian","AQI Rank":"645","Graduation Rate":"10.3%","Faculty to Student Ratio":"14.7%","Faculty per Degree Awarded":"5.4%","Instructional Expenses":"12.1%","AQI":"0.4242168769801845","AQI Percentile Display":"23.6%","AQI Tier":"Questionable","Latitude":38.9505943,"Longitude":-92.3229551},{"University":"Southwest Baptist University","City":"Bolivar","State":"MO","Denomination":"Baptist","AQI Rank":"644","Graduation Rate":"11.1%","Faculty to Student Ratio":"14.5%","Faculty per Degree Awarded":"4.7%","Instructional Expenses":"12.1%","AQI":"0.4243107299748235","AQI Percentile Display":"23.7%","AQI Tier":"Questionable","Latitude":37.60076005,"Longitude":-93.4087307447},{"University":"East Texas Baptist University","City":"Marshall","State":"TX","Denomination":"Baptist","AQI Rank":"643","Graduation Rate":"10.9%","Faculty to Student Ratio":"14.5%","Faculty per Degree Awarded":"5.0%","Instructional Expenses":"12.1%","AQI":"0.4244057913592173","AQI Percentile Display":"23.8%","AQI Tier":"Questionable","Latitude":32.55795265,"Longitude":-94.375113428},{"University":"Friends University","City":"Wichita","State":"KS","Denomination":"Friends","AQI Rank":"642","Graduation Rate":"11.0%","Faculty to Student Ratio":"14.5%","Faculty per Degree Awarded":"5.0%","Instructional Expenses":"12.1%","AQI":"0.4253544368566654","AQI Percentile Display":"24.0%","AQI Tier":"Questionable","Latitude":37.6784007,"Longitude":-97.3654214162},{"University":"Long Island University","City":"Brookville","State":"NY","Denomination":"Nonsectarian","AQI Rank":"641","Graduation Rate":"10.9%","Faculty to Student Ratio":"14.5%","Faculty per Degree Awarded":"5.1%","Instructional Expenses":"12.1%","AQI":"0.42614996998828847","AQI Percentile Display":"24.1%","AQI Tier":"Questionable","Latitude":40.820249,"Longitude":-73.5967133364},{"University":"The Christ College of Nursing and Health Sciences","City":"Cincinnati","State":"OH","Denomination":"Interdenominational","AQI Rank":"640","Graduation Rate":"11.1%","Faculty to Student Ratio":"14.4%","Faculty per Degree Awarded":"5.0%","Instructional Expenses":"12.1%","AQI":"0.42704295809034265","AQI Percentile Display":"24.2%","AQI Tier":"Questionable","Latitude":39.103699,"Longitude":-84.513611},{"University":"Averett University","City":"Danville","State":"VA","Denomination":"Baptist","AQI Rank":"639","Graduation Rate":"11.2%","Faculty to Student Ratio":"14.5%","Faculty per Degree Awarded":"4.9%","Instructional Expenses":"12.1%","AQI":"0.4271278440569631","AQI Percentile Display":"24.3%","AQI Tier":"Questionable","Latitude":36.5789301,"Longitude":-79.4145205163},{"University":"University of Rio Grande","City":"Rio Grande","State":"OH","Denomination":"Nonsectarian","AQI Rank":"638","Graduation Rate":"11.5%","Faculty to Student Ratio":"14.3%","Faculty per Degree Awarded":"4.9%","Instructional Expenses":"12.1%","AQI":"0.4276740129167441","AQI Percentile Display":"24.4%","AQI Tier":"Questionable","Latitude":38.8788275,"Longitude":-82.3760292301},{"University":"New Hope Christian College-Eugene","City":"Eugene","State":"OR","Denomination":"Protestant","AQI Rank":"637","Graduation Rate":"11.8%","Faculty to Student Ratio":"14.0%","Faculty per Degree Awarded":"5.0%","Instructional Expenses":"12.0%","AQI":"0.42821071549297895","AQI Percentile Display":"24.6%","AQI Tier":"Questionable","Latitude":44.0336731,"Longitude":-123.1538677854},{"University":"Belhaven University","City":"Jackson","State":"MS","Denomination":"Presbyterian","AQI Rank":"636","Graduation Rate":"11.7%","Faculty to Student Ratio":"14.7%","Faculty per Degree Awarded":"4.3%","Instructional Expenses":"12.1%","AQI":"0.4284028836969247","AQI Percentile Display":"24.7%","AQI Tier":"Questionable","Latitude":32.3201391,"Longitude":-90.1690571965},{"University":"Tabor College","City":"Hillsboro","State":"KS","Denomination":"Anabaptist","AQI Rank":"635","Graduation Rate":"11.2%","Faculty to Student Ratio":"14.5%","Faculty per Degree Awarded":"5.1%","Instructional Expenses":"12.1%","AQI":"0.42909370257708906","AQI Percentile Display":"24.8%","AQI Tier":"Questionable","Latitude":38.34564655,"Longitude":-97.1997449022},{"University":"Hope International University","City":"Fullerton","State":"CA","Denomination":"Protestant","AQI Rank":"634","Graduation Rate":"11.0%","Faculty to Student Ratio":"14.7%","Faculty per Degree Awarded":"5.1%","Instructional Expenses":"12.1%","AQI":"0.42913073022856485","AQI Percentile Display":"24.9%","AQI Tier":"Questionable","Latitude":33.8763883,"Longitude":-117.8855690297},{"University":"Mount St. Joseph University","City":"Cincinnati","State":"OH","Denomination":"Catholic","AQI Rank":"633","Graduation Rate":"10.9%","Faculty to Student Ratio":"14.7%","Faculty per Degree Awarded":"5.3%","Instructional Expenses":"12.1%","AQI":"0.4296989157267857","AQI Percentile Display":"25.0%","AQI Tier":"Questionable","Latitude":39.23261,"Longitude":-84.544492},{"University":"Greensboro College","City":"Greensboro","State":"NC","Denomination":"Methodist","AQI Rank":"632","Graduation Rate":"8.9%","Faculty to Student Ratio":"14.6%","Faculty per Degree Awarded":"7.4%","Instructional Expenses":"12.1%","AQI":"0.4307701604667424","AQI Percentile Display":"25.2%","AQI Tier":"Questionable","Latitude":36.0713888,"Longitude":-79.8008558023},{"University":"Bay Path University","City":"Longmeadow","State":"MA","Denomination":"Jewish","AQI Rank":"631","Graduation Rate":"7.0%","Faculty to Student Ratio":"18.7%","Faculty per Degree Awarded":"5.2%","Instructional Expenses":"12.3%","AQI":"0.43134950380465165","AQI Percentile Display":"25.3%","AQI Tier":"Questionable","Latitude":42.055796,"Longitude":-72.5841918085},{"University":"Southwestern Adventist University","City":"Keene","State":"TX","Denomination":"Seventh Day Adventist","AQI Rank":"630","Graduation Rate":"11.2%","Faculty to Student Ratio":"14.6%","Faculty per Degree Awarded":"5.3%","Instructional Expenses":"12.1%","AQI":"0.43184198712273264","AQI Percentile Display":"25.4%","AQI Tier":"Questionable","Latitude":32.39755805,"Longitude":-97.3282199291},{"University":"Bethel University","City":"Mishawaka","State":"IN","Denomination":"Protestant","AQI Rank":"629","Graduation Rate":"11.5%","Faculty to Student Ratio":"14.6%","Faculty per Degree Awarded":"5.1%","Instructional Expenses":"12.1%","AQI":"0.4319135228418144","AQI Percentile Display":"25.5%","AQI Tier":"Questionable","Latitude":41.6763764,"Longitude":-86.1933296703},{"University":"Graceland University-Lamoni","City":"Lamoni","State":"IA","Denomination":"Other","AQI Rank":"628","Graduation Rate":"9.0%","Faculty to Student Ratio":"14.7%","Faculty per Degree Awarded":"7.5%","Instructional Expenses":"12.1%","AQI":"0.4322226636914604","AQI Percentile Display":"25.6%","AQI Tier":"Questionable","Latitude":40.61690775,"Longitude":-93.925565573},{"University":"Belmont Abbey College","City":"Belmont","State":"NC","Denomination":"Catholic","AQI Rank":"627","Graduation Rate":"11.3%","Faculty to Student Ratio":"14.6%","Faculty per Degree Awarded":"5.3%","Instructional Expenses":"12.1%","AQI":"0.43251521590661013","AQI Percentile Display":"25.7%","AQI Tier":"Questionable","Latitude":35.2613455,"Longitude":-81.0363589947},{"University":"Maryville College","City":"Maryville","State":"TN","Denomination":"Presbyterian","AQI Rank":"626","Graduation Rate":"11.3%","Faculty to Student Ratio":"14.6%","Faculty per Degree Awarded":"5.3%","Instructional Expenses":"12.1%","AQI":"0.43259282651155084","AQI Percentile Display":"25.9%","AQI Tier":"Questionable","Latitude":35.751472,"Longitude":-83.9642249},{"University":"Iona University","City":"New Rochelle","State":"NY","Denomination":"Catholic","AQI Rank":"625","Graduation Rate":"11.8%","Faculty to Student Ratio":"14.5%","Faculty per Degree Awarded":"5.0%","Instructional Expenses":"12.1%","AQI":"0.4338041070145714","AQI Percentile Display":"26.0%","AQI Tier":"Questionable","Latitude":40.9272305,"Longitude":-73.7856908961},{"University":"Spalding University","City":"Louisville","State":"KY","Denomination":"Catholic","AQI Rank":"624","Graduation Rate":"11.1%","Faculty to Student Ratio":"15.0%","Faculty per Degree Awarded":"5.2%","Instructional Expenses":"12.1%","AQI":"0.43415945348631363","AQI Percentile Display":"26.1%","AQI Tier":"Questionable","Latitude":38.24240815,"Longitude":-85.7585619211},{"University":"Houston Christian University","City":"Houston","State":"TX","Denomination":"Baptist","AQI Rank":"623","Graduation Rate":"12.1%","Faculty to Student Ratio":"14.4%","Faculty per Degree Awarded":"4.9%","Instructional Expenses":"12.1%","AQI":"0.4346332452341332","AQI Percentile Display":"26.2%","AQI Tier":"Questionable","Latitude":29.7532075595,"Longitude":-95.5330424264},{"University":"Concordia University-Nebraska","City":"Seward","State":"NE","Denomination":"Lutheran","AQI Rank":"622","Graduation Rate":"12.1%","Faculty to Student Ratio":"14.4%","Faculty per Degree Awarded":"5.0%","Instructional Expenses":"12.1%","AQI":"0.4350589358007883","AQI Percentile Display":"26.3%","AQI Tier":"Questionable","Latitude":40.9136406,"Longitude":-97.0875102036},{"University":"Newberry College","City":"Newberry","State":"SC","Denomination":"Lutheran","AQI Rank":"621","Graduation Rate":"12.1%","Faculty to Student Ratio":"14.4%","Faculty per Degree Awarded":"5.0%","Instructional Expenses":"12.1%","AQI":"0.4353235396224847","AQI Percentile Display":"26.4%","AQI Tier":"Questionable","Latitude":34.2852622,"Longitude":-81.6216373559},{"University":"Wilmington College","City":"Wilmington","State":"OH","Denomination":"Friends","AQI Rank":"620","Graduation Rate":"12.0%","Faculty to Student Ratio":"14.5%","Faculty per Degree Awarded":"5.0%","Instructional Expenses":"12.1%","AQI":"0.43558292603804366","AQI Percentile Display":"26.6%","AQI Tier":"Questionable","Latitude":39.441677,"Longitude":-83.8173160075},{"University":"Southeastern University","City":"Lakeland","State":"FL","Denomination":"Pentecostal","AQI Rank":"619","Graduation Rate":"12.3%","Faculty to Student Ratio":"14.3%","Faculty per Degree Awarded":"4.9%","Instructional Expenses":"12.1%","AQI":"0.43599553419920284","AQI Percentile Display":"26.7%","AQI Tier":"Questionable","Latitude":28.03048365,"Longitude":-81.9180090569},{"University":"Avila University","City":"Kansas City","State":"MO","Denomination":"Catholic","AQI Rank":"618","Graduation Rate":"12.0%","Faculty to Student Ratio":"14.5%","Faculty per Degree Awarded":"5.1%","Instructional Expenses":"12.1%","AQI":"0.4360780670598135","AQI Percentile Display":"26.8%","AQI Tier":"Questionable","Latitude":38.91232935,"Longitude":-94.5915629474},{"University":"Neumann University","City":"Aston","State":"PA","Denomination":"Catholic","AQI Rank":"617","Graduation Rate":"11.9%","Faculty to Student Ratio":"14.6%","Faculty per Degree Awarded":"5.1%","Instructional Expenses":"12.1%","AQI":"0.4365501151124028","AQI Percentile Display":"26.9%","AQI Tier":"Questionable","Latitude":39.87556305,"Longitude":-75.4404744508},{"University":"Kentucky Mountain Bible College","City":"Jackson","State":"KY","Denomination":"Interdenominational","AQI Rank":"616","Graduation Rate":"11.3%","Faculty to Student Ratio":"14.8%","Faculty per Degree Awarded":"5.5%","Instructional Expenses":"12.1%","AQI":"0.43695537405019735","AQI Percentile Display":"27.0%","AQI Tier":"Questionable","Latitude":37.557603,"Longitude":-83.381557},{"University":"Cornell College","City":"Mount Vernon","State":"IA","Denomination":"Methodist","AQI Rank":"615","Graduation Rate":"11.9%","Faculty to Student Ratio":"14.5%","Faculty per Degree Awarded":"5.2%","Instructional Expenses":"12.1%","AQI":"0.4370042736608502","AQI Percentile Display":"27.2%","AQI Tier":"Questionable","Latitude":41.9253978,"Longitude":-91.4239855275},{"University":"Central Methodist University-College of Liberal Arts and Sciences","City":"Fayette","State":"MO","Denomination":"Methodist","AQI Rank":"614","Graduation Rate":"12.1%","Faculty to Student Ratio":"14.5%","Faculty per Degree Awarded":"5.0%","Instructional Expenses":"12.1%","AQI":"0.4370678723433485","AQI Percentile Display":"27.3%","AQI Tier":"Questionable","Latitude":39.147271,"Longitude":-92.684682},{"University":"Dominican University","City":"River Forest","State":"IL","Denomination":"Catholic","AQI Rank":"613","Graduation Rate":"12.0%","Faculty to Student Ratio":"14.5%","Faculty per Degree Awarded":"5.1%","Instructional Expenses":"12.1%","AQI":"0.43725436882145996","AQI Percentile Display":"27.4%","AQI Tier":"Questionable","Latitude":41.90289665,"Longitude":-87.8226265681},{"University":"Lackawanna College","City":"Scranton","State":"PA","Denomination":"Nonsectarian","AQI Rank":"612","Graduation Rate":"12.5%","Faculty to Student Ratio":"14.4%","Faculty per Degree Awarded":"4.8%","Instructional Expenses":"12.1%","AQI":"0.43726725953338685","AQI Percentile Display":"27.5%","AQI Tier":"Questionable","Latitude":41.41176365,"Longitude":-75.6586756588},{"University":"Clarke University","City":"Dubuque","State":"IA","Denomination":"Catholic","AQI Rank":"611","Graduation Rate":"11.8%","Faculty to Student Ratio":"14.7%","Faculty per Degree Awarded":"5.2%","Instructional Expenses":"12.1%","AQI":"0.437603909875646","AQI Percentile Display":"27.6%","AQI Tier":"Questionable","Latitude":42.50961785,"Longitude":-90.6906944229},{"University":"Dakota Wesleyan University","City":"Mitchell","State":"SD","Denomination":"Methodist","AQI Rank":"610","Graduation Rate":"12.3%","Faculty to Student Ratio":"14.4%","Faculty per Degree Awarded":"4.9%","Instructional Expenses":"12.1%","AQI":"0.4377068585477475","AQI Percentile Display":"27.8%","AQI Tier":"Questionable","Latitude":43.69723515,"Longitude":-98.0304679264},{"University":"Eastern Nazarene College","City":"Quincy","State":"MA","Denomination":"Protestant","AQI Rank":"609","Graduation Rate":"14.0%","Faculty to Student Ratio":"12.5%","Faculty per Degree Awarded":"5.3%","Instructional Expenses":"11.9%","AQI":"0.4378422410642862","AQI Percentile Display":"27.9%","AQI Tier":"Questionable","Latitude":42.2719128,"Longitude":-71.0106364739},{"University":"Franklin Pierce University","City":"Rindge","State":"NH","Denomination":"Nonsectarian","AQI Rank":"608","Graduation Rate":"11.0%","Faculty to Student Ratio":"15.3%","Faculty per Degree Awarded":"5.4%","Instructional Expenses":"12.1%","AQI":"0.4384683234427893","AQI Percentile Display":"28.0%","AQI Tier":"Questionable","Latitude":42.7793366,"Longitude":-72.0558917},{"University":"Randolph College","City":"Lynchburg","State":"VA","Denomination":"Interdenominational","AQI Rank":"607","Graduation Rate":"11.0%","Faculty to Student Ratio":"15.0%","Faculty per Degree Awarded":"5.6%","Instructional Expenses":"12.1%","AQI":"0.43848913912930443","AQI Percentile Display":"28.1%","AQI Tier":"Questionable","Latitude":37.43933375,"Longitude":-79.1709348513},{"University":"Hiram College","City":"Hiram","State":"OH","Denomination":"Interdenominational","AQI Rank":"606","Graduation Rate":"12.0%","Faculty to Student Ratio":"14.6%","Faculty per Degree Awarded":"5.2%","Instructional Expenses":"12.1%","AQI":"0.43935844054498274","AQI Percentile Display":"28.2%","AQI Tier":"Questionable","Latitude":41.3136471,"Longitude":-81.1430681255},{"University":"Gods Bible School and College","City":"Cincinnati","State":"OH","Denomination":"Protestant","AQI Rank":"605","Graduation Rate":"10.5%","Faculty to Student Ratio":"14.6%","Faculty per Degree Awarded":"6.7%","Instructional Expenses":"12.1%","AQI":"0.4393988722906634","AQI Percentile Display":"28.4%","AQI Tier":"Questionable","Latitude":39.196175,"Longitude":-84.543441},{"University":"Great Lakes Christian College","City":"Lansing","State":"MI","Denomination":"Protestant","AQI Rank":"604","Graduation Rate":"11.9%","Faculty to Student Ratio":"14.7%","Faculty per Degree Awarded":"5.2%","Instructional Expenses":"12.1%","AQI":"0.4399124356941055","AQI Percentile Display":"28.5%","AQI Tier":"Questionable","Latitude":42.75431465,"Longitude":-84.638511568},{"University":"Schreiner University","City":"Kerrville","State":"TX","Denomination":"Presbyterian","AQI Rank":"603","Graduation Rate":"12.6%","Faculty to Student Ratio":"14.4%","Faculty per Degree Awarded":"5.0%","Instructional Expenses":"12.1%","AQI":"0.4402846710144861","AQI Percentile Display":"28.6%","AQI Tier":"Questionable","Latitude":30.03127035,"Longitude":-99.1302464745},{"University":"Lees-McRae College","City":"Banner Elk","State":"NC","Denomination":"Presbyterian","AQI Rank":"602","Graduation Rate":"12.1%","Faculty to Student Ratio":"14.6%","Faculty per Degree Awarded":"5.2%","Instructional Expenses":"12.1%","AQI":"0.4406424088111068","AQI Percentile Display":"28.7%","AQI Tier":"Questionable","Latitude":36.15271495,"Longitude":-81.8815894124},{"University":"Mount Mercy University","City":"Cedar Rapids","State":"IA","Denomination":"Catholic","AQI Rank":"601","Graduation Rate":"12.3%","Faculty to Student Ratio":"14.6%","Faculty per Degree Awarded":"5.1%","Instructional Expenses":"12.1%","AQI":"0.4408165174006704","AQI Percentile Display":"28.8%","AQI Tier":"Questionable","Latitude":42.002593,"Longitude":-91.6519688914},{"University":"College of Menominee Nation","City":"Keshena","State":"WI","Denomination":"Nonsectarian","AQI Rank":"600","Graduation Rate":"10.3%","Faculty to Student Ratio":"14.5%","Faculty per Degree Awarded":"7.2%","Instructional Expenses":"12.1%","AQI":"0.4409607227597317","AQI Percentile Display":"28.9%","AQI Tier":"Questionable","Latitude":44.85554755,"Longitude":-88.6245843192},{"University":"Goucher College","City":"Baltimore","State":"MD","Denomination":"Nonsectarian","AQI Rank":"599","Graduation Rate":"10.3%","Faculty to Student Ratio":"15.4%","Faculty per Degree Awarded":"6.4%","Instructional Expenses":"12.2%","AQI":"0.44152786428361607","AQI Percentile Display":"29.1%","AQI Tier":"Questionable","Latitude":39.408995,"Longitude":-76.5928709157},{"University":"University of Mount Olive","City":"Mount Olive","State":"NC","Denomination":"Baptist","AQI Rank":"598","Graduation Rate":"12.7%","Faculty to Student Ratio":"14.4%","Faculty per Degree Awarded":"5.0%","Instructional Expenses":"12.1%","AQI":"0.44174371945544344","AQI Percentile Display":"29.2%","AQI Tier":"Questionable","Latitude":35.20585095,"Longitude":-78.069978572},{"University":"Mercy University","City":"Dobbs Ferry","State":"NY","Denomination":"Catholic","AQI Rank":"597","Graduation Rate":"12.7%","Faculty to Student Ratio":"14.5%","Faculty per Degree Awarded":"4.9%","Instructional Expenses":"12.1%","AQI":"0.44220258531712703","AQI Percentile Display":"29.3%","AQI Tier":"Questionable","Latitude":41.02156265,"Longitude":-73.8744642529},{"University":"Mount Aloysius College","City":"Cresson","State":"PA","Denomination":"Catholic","AQI Rank":"596","Graduation Rate":"12.7%","Faculty to Student Ratio":"14.3%","Faculty per Degree Awarded":"5.1%","Instructional Expenses":"12.1%","AQI":"0.44251253543163377","AQI Percentile Display":"29.4%","AQI Tier":"Questionable","Latitude":40.45871235,"Longitude":-78.6040379074},{"University":"Charleston Southern University","City":"Charleston","State":"SC","Denomination":"Baptist","AQI Rank":"595","Graduation Rate":"12.4%","Faculty to Student Ratio":"14.6%","Faculty per Degree Awarded":"5.2%","Instructional Expenses":"12.1%","AQI":"0.44286657538052937","AQI Percentile Display":"29.5%","AQI Tier":"Questionable","Latitude":32.9826445,"Longitude":-80.0710966161},{"University":"Thomas College","City":"Waterville","State":"ME","Denomination":"Nonsectarian","AQI Rank":"594","Graduation Rate":"13.0%","Faculty to Student Ratio":"14.4%","Faculty per Degree Awarded":"4.9%","Instructional Expenses":"12.1%","AQI":"0.44300967482254716","AQI Percentile Display":"29.7%","AQI Tier":"Questionable","Latitude":44.5223921,"Longitude":-69.6633477503},{"University":"La Salle University","City":"Philadelphia","State":"PA","Denomination":"Catholic","AQI Rank":"593","Graduation Rate":"12.8%","Faculty to Student Ratio":"14.6%","Faculty per Degree Awarded":"4.8%","Instructional Expenses":"12.1%","AQI":"0.44352078080650004","AQI Percentile Display":"29.8%","AQI Tier":"Questionable","Latitude":40.03762975,"Longitude":-75.154002517},{"University":"Birmingham-Southern College","City":"Birmingham","State":"AL","Denomination":"Methodist","AQI Rank":"592","Graduation Rate":"12.2%","Faculty to Student Ratio":"15.0%","Faculty per Degree Awarded":"5.1%","Instructional Expenses":"12.1%","AQI":"0.4436307429766778","AQI Percentile Display":"29.9%","AQI Tier":"Questionable","Latitude":33.51618545,"Longitude":-86.8558469685},{"University":"Huntingdon College","City":"Montgomery","State":"AL","Denomination":"Methodist","AQI Rank":"591","Graduation Rate":"12.7%","Faculty to Student Ratio":"14.4%","Faculty per Degree Awarded":"5.2%","Instructional Expenses":"12.1%","AQI":"0.44367328527587735","AQI Percentile Display":"30.0%","AQI Tier":"Questionable","Latitude":32.3493496,"Longitude":-86.2852119433},{"University":"Young Harris College","City":"Young Harris","State":"GA","Denomination":"Methodist","AQI Rank":"590","Graduation Rate":"12.3%","Faculty to Student Ratio":"14.5%","Faculty per Degree Awarded":"5.5%","Instructional Expenses":"12.1%","AQI":"0.44436269712522775","AQI Percentile Display":"30.1%","AQI Tier":"Questionable","Latitude":34.9357023,"Longitude":-83.845968131},{"University":"Augsburg University","City":"Minneapolis","State":"MN","Denomination":"Lutheran","AQI Rank":"589","Graduation Rate":"12.9%","Faculty to Student Ratio":"14.4%","Faculty per Degree Awarded":"5.0%","Instructional Expenses":"12.1%","AQI":"0.44449041161977315","AQI Percentile Display":"30.2%","AQI Tier":"Questionable","Latitude":44.9662364,"Longitude":-93.2411046614},{"University":"Saint Xavier University","City":"Chicago","State":"IL","Denomination":"Catholic","AQI Rank":"588","Graduation Rate":"13.0%","Faculty to Student Ratio":"14.4%","Faculty per Degree Awarded":"4.9%","Instructional Expenses":"12.1%","AQI":"0.4448677893137845","AQI Percentile Display":"30.4%","AQI Tier":"Questionable","Latitude":41.70792405,"Longitude":-87.71463118},{"University":"Lenoir-Rhyne University","City":"Hickory","State":"NC","Denomination":"Lutheran","AQI Rank":"587","Graduation Rate":"12.8%","Faculty to Student Ratio":"14.6%","Faculty per Degree Awarded":"5.0%","Instructional Expenses":"12.1%","AQI":"0.4448958971084833","AQI Percentile Display":"30.5%","AQI Tier":"Questionable","Latitude":35.74174755,"Longitude":-81.3267581296},{"University":"Ave Maria University","City":"Ave Maria","State":"FL","Denomination":"Catholic","AQI Rank":"586","Graduation Rate":"13.0%","Faculty to Student Ratio":"14.4%","Faculty per Degree Awarded":"5.0%","Instructional Expenses":"12.1%","AQI":"0.4459488381898295","AQI Percentile Display":"30.6%","AQI Tier":"Questionable","Latitude":26.33623575,"Longitude":-81.4398544532},{"University":"Baptist Health Sciences University","City":"Memphis","State":"TN","Denomination":"Baptist","AQI Rank":"585","Graduation Rate":"11.7%","Faculty to Student Ratio":"15.4%","Faculty per Degree Awarded":"5.1%","Instructional Expenses":"12.4%","AQI":"0.4463534408603433","AQI Percentile Display":"30.7%","AQI Tier":"Questionable","Latitude":35.13653725,"Longitude":-90.0261677619},{"University":"Mid-Atlantic Christian University","City":"Elizabeth City","State":"NC","Denomination":"Protestant","AQI Rank":"584","Graduation Rate":"17.5%","Faculty to Student Ratio":"15.1%","Faculty per Degree Awarded":"0.0%","Instructional Expenses":"12.1%","AQI":"0.4464352522237073","AQI Percentile Display":"30.8%","AQI Tier":"Questionable","Latitude":36.3044141,"Longitude":-76.2163649146},{"University":"Monmouth College","City":"Monmouth","State":"IL","Denomination":"Presbyterian","AQI Rank":"583","Graduation Rate":"13.2%","Faculty to Student Ratio":"14.4%","Faculty per Degree Awarded":"5.0%","Instructional Expenses":"12.1%","AQI":"0.44715497544735405","AQI Percentile Display":"31.0%","AQI Tier":"Questionable","Latitude":40.9144918,"Longitude":-90.6383902695},{"University":"Kentucky Wesleyan College","City":"Owensboro","State":"KY","Denomination":"Methodist","AQI Rank":"582","Graduation Rate":"12.9%","Faculty to Student Ratio":"14.6%","Faculty per Degree Awarded":"5.2%","Instructional Expenses":"12.1%","AQI":"0.4473478049047335","AQI Percentile Display":"31.1%","AQI Tier":"Questionable","Latitude":37.7433245,"Longitude":-87.1206201914},{"University":"Brescia University","City":"Owensboro","State":"KY","Denomination":"Catholic","AQI Rank":"581","Graduation Rate":"14.4%","Faculty to Student Ratio":"13.4%","Faculty per Degree Awarded":"5.0%","Instructional Expenses":"12.0%","AQI":"0.4483271242653904","AQI Percentile Display":"31.2%","AQI Tier":"Questionable","Latitude":37.7683615,"Longitude":-87.1117779967},{"University":"Delaware Valley University","City":"Doylestown","State":"PA","Denomination":"Nonsectarian","AQI Rank":"580","Graduation Rate":"13.3%","Faculty to Student Ratio":"14.5%","Faculty per Degree Awarded":"5.0%","Instructional Expenses":"12.1%","AQI":"0.44842869155861265","AQI Percentile Display":"31.3%","AQI Tier":"Questionable","Latitude":40.29314845,"Longitude":-75.1599412145},{"University":"Davenport University","City":"Grand Rapids","State":"MI","Denomination":"Nonsectarian","AQI Rank":"579","Graduation Rate":"13.3%","Faculty to Student Ratio":"14.5%","Faculty per Degree Awarded":"5.0%","Instructional Expenses":"12.1%","AQI":"0.44854082076186624","AQI Percentile Display":"31.4%","AQI Tier":"Questionable","Latitude":42.84920905,"Longitude":-85.5313091955},